[
    {
        "name": "Anaa Airport, French Polynesia, AAA",
        "latLong": "-17.3595, -145.494"
    },
    {
        "name": "El Mellah Airport, Algeria, AAE",
        "latLong": "36.8236, 7.8103"
    },
    {
        "name": "Aalborg Airport, Denmark, AAL",
        "latLong": "57.0952, 9.85606"
    },
    {
        "name": "Mala Mala, South Africa, AAM",
        "latLong": "-24.8, 31.5333"
    },
    {
        "name": "Al Ain Airport, United Arab Emirates, AAN",
        "latLong": "24.25, 55.75"
    },
    {
        "name": "Olkhovka Airport, Russia, AAQ",
        "latLong": "44.9, 37.3167"
    },
    {
        "name": "Tirstrup Airport, Denmark, AAR",
        "latLong": "56.3088, 10.6154"
    },
    {
        "name": "Altay Airport, China, AAT",
        "latLong": "47.7406, 88.0845"
    },
    {
        "name": "Romeu Zuma Airport, Brazil, AAX",
        "latLong": "-19.5603, -46.9653"
    },
    {
        "name": "Al Gaidah Airport, Yemen, AAY",
        "latLong": "16.1947, 52.1694"
    },
    {
        "name": "Abakan, Russian Federation, ABA",
        "latLong": "53.7167, 91.4333"
    },
    {
        "name": "Los Llanos, Spain, ABC",
        "latLong": "38.9833, -1.85"
    },
    {
        "name": "Unknown, Iran, ABD",
        "latLong": "30.3374, 48.3032"
    },
    {
        "name": "Lehigh Valley Intl. Airport, United States, ABE",
        "latLong": "40.6514, -75.4342"
    },
    {
        "name": "Abilene Regional Airport, United States, ABI",
        "latLong": "32.4164, -99.6803"
    },
    {
        "name": "Abidjan Port Bouet Airport, Ivory Coast, ABJ",
        "latLong": "5.2556, -3.9292"
    },
    {
        "name": "Kabri Dar, Ethiopia, ABK",
        "latLong": "6.73719, 44.2797"
    },
    {
        "name": "Ambler Airport, United States, ABL",
        "latLong": "67.1058, -157.854"
    },
    {
        "name": "Bamaga Airport, Australia, ABM",
        "latLong": "-10.9438, 142.453"
    },
    {
        "name": "Albuquerque Intl. Airport, United States, ABQ",
        "latLong": "35.0494, -106.625"
    },
    {
        "name": "Aberdeen Regional Airport, United States, ABR",
        "latLong": "45.4536, -98.4189"
    },
    {
        "name": "Abu Simbel Airport, Egypt, ABS",
        "latLong": "22.3722, 31.6125"
    },
    {
        "name": "Al Baha Airport, Saudi Arabia, ABT",
        "latLong": "20.2961, 41.6342"
    },
    {
        "name": "Abuja Intl. Airport, Nigeria, ABV",
        "latLong": "9.0056, 7.2661"
    },
    {
        "name": "Albury Airport, Australia, ABX",
        "latLong": "-36.0678, 146.956"
    },
    {
        "name": "Southwest Georgia Regional Airport, United States, ABY",
        "latLong": "31.5328, -84.1867"
    },
    {
        "name": "Aberdeen Dyce Intl. Airport, United Kingdom, ABZ",
        "latLong": "57.2004, -2.20373"
    },
    {
        "name": "General Juan N Alvarez Intl. Airport, Mexico, ACA",
        "latLong": "16.7561, -99.7536"
    },
    {
        "name": "Kotoka Intl. Airport, Ghana, ACC",
        "latLong": "5.5964, -0.17"
    },
    {
        "name": "Arrecife Airport, Spain, ACE",
        "latLong": "28.9521, -13.6085"
    },
    {
        "name": "Altenrhein Airport, Switzerland, ACH",
        "latLong": "47.4887, 9.55376"
    },
    {
        "name": "The Blaye Airport, United Kingdom, ACI",
        "latLong": "49.7134, -2.22089"
    },
    {
        "name": "Nantucket Memorial Airport, United States, ACK",
        "latLong": "41.2568, -70.0649"
    },
    {
        "name": "Sahand Airport, Iran, ACP",
        "latLong": "68.1609, -151.696"
    },
    {
        "name": "Unknown, Russia, ACS",
        "latLong": "47.7006, 18.0064"
    },
    {
        "name": "Waco Regional Airport, United States, ACT",
        "latLong": "31.609, -97.2234"
    },
    {
        "name": "Arcata Airport, United States, ACV",
        "latLong": "40.9698, -124.108"
    },
    {
        "name": "Xingyi, China, ACX",
        "latLong": "25.0887, 104.89"
    },
    {
        "name": "Atlantic City Intl. Airport, United States, ACY",
        "latLong": "39.4512, -74.5716"
    },
    {
        "name": "Zabol A/P, Iran, ACZ",
        "latLong": "31.0385, 61.4962"
    },
    {
        "name": "Sakirpasa Airport, Turkey, ADA",
        "latLong": "36.9811, 35.2803"
    },
    {
        "name": "Gaziemir Airport, Turkey, ADB",
        "latLong": "38.32, 27.1603"
    },
    {
        "name": "Bole Intl. Airport, Ethiopia, ADD",
        "latLong": "8.9783, 38.8011"
    },
    {
        "name": "Aden Intl. Airport, Yemen, ADE",
        "latLong": "12.8278, 45.0306"
    },
    {
        "name": "Adiyaman Airport, Turkey, ADF",
        "latLong": "37.8099, 38.3357"
    },
    {
        "name": "Al Matar Airport, Jordan, ADJ",
        "latLong": "31.973, 35.9822"
    },
    {
        "name": "Adak Airport, United States, ADK",
        "latLong": "51.88, -176.639"
    },
    {
        "name": "Adelaide Intl. Airport, Australia, ADL",
        "latLong": "-34.9464, 138.529"
    },
    {
        "name": "Kodiak Airport, United States, ADQ",
        "latLong": "57.7545, -152.512"
    },
    {
        "name": "Ardabil Airport, Iran, ADU",
        "latLong": "38.2465, 48.2951"
    },
    {
        "name": "Leuchars Airport, United Kingdom, ADX",
        "latLong": "56.377, -2.86117"
    },
    {
        "name": "Sesquicentenario Airport, Colombia, ADZ",
        "latLong": "12.5811, -81.7092"
    },
    {
        "name": "Abeche Airport, Chad, AEH",
        "latLong": "13.8486, 20.8472"
    },
    {
        "name": "Aeroparque Jorge Newbery, Argentina, AEP",
        "latLong": "-34.5617, -58.4113"
    },
    {
        "name": "Adler Airport, Russia, AER",
        "latLong": "43.447, 39.9552"
    },
    {
        "name": "Vigra Airport, Norway, AES",
        "latLong": "62.5607, 6.11129"
    },
    {
        "name": "Allakaket Airport, United States, AET",
        "latLong": "66.55, -152.65"
    },
    {
        "name": "Alexandria Intl. Airport, United States, AEX",
        "latLong": "31.323, -92.5417"
    },
    {
        "name": "Akureyri Airport, Iceland, AEY",
        "latLong": "65.6561, -18.0923"
    },
    {
        "name": "San Rafael Airport, Argentina, AFA",
        "latLong": "-34.5886, -68.4028"
    },
    {
        "name": "Alta Floresta Airport, Brazil, AFL",
        "latLong": "-9.8661, -56.1044"
    },
    {
        "name": "Zarafshan Airport, Uzbekistan, AFS",
        "latLong": "41.6136, 64.2331"
    },
    {
        "name": "Afutara Aerodrome, Solomon Islands, AFT",
        "latLong": "-9.18333, 160.95"
    },
    {
        "name": "Sabzevar Airport, Iran, AFZ",
        "latLong": "36.1903, 57.7094"
    },
    {
        "name": "Almassira Airport, Morocco, AGA",
        "latLong": "30.3833, -9.55"
    },
    {
        "name": "La Garenne Airport, France, AGF",
        "latLong": "44.1736, 0.59223"
    },
    {
        "name": "Angelholm Airport, Sweden, AGH",
        "latLong": "56.2873, 12.8675"
    },
    {
        "name": "Wanigela, Papua New Guinea, AGL",
        "latLong": "-9.33333, 149.15"
    },
    {
        "name": "Angmagssalik Airport, Greenland, AGM",
        "latLong": "65.6667, -37.6667"
    },
    {
        "name": "Angoon Airport, United States, AGN",
        "latLong": "57.4996, -134.577"
    },
    {
        "name": "Malaga Airport, Spain, AGP",
        "latLong": "36.6749, -4.49298"
    },
    {
        "name": "Agra Airport, India, AGR",
        "latLong": "27.1632, 77.9788"
    },
    {
        "name": "Bush Field Airport, United States, AGS",
        "latLong": "33.3735, -81.9732"
    },
    {
        "name": "Alejo Garcia Airport, Paraguay, AGT",
        "latLong": "-25.5266, -54.6226"
    },
    {
        "name": "Aguascalientes Airport, Mexico, AGU",
        "latLong": "21.7047, -102.317"
    },
    {
        "name": "Acarigua, Venezuela, AGV",
        "latLong": "9.55194, -69.2367"
    },
    {
        "name": "Agatti Island Airport, India, AGX",
        "latLong": "10.8415, 72.175"
    },
    {
        "name": "Abha Airport, Saudi Arabia, AHB",
        "latLong": "18.24, 42.6556"
    },
    {
        "name": "Ahe Airport, French Polynesia, AHE",
        "latLong": "-14.5, -1.3"
    },
    {
        "name": "Alghero Airport, Italy, AHO",
        "latLong": "40.6319, 8.29279"
    },
    {
        "name": "Ahuas Airport, Honduras, AHS",
        "latLong": "15.4534, -84.4041"
    },
    {
        "name": "Cote du Rif Airport, Morocco, AHU",
        "latLong": "35.1781, -3.8383"
    },
    {
        "name": "Alliance Municipal Airport, United States, AIA",
        "latLong": "42.0622, -102.81"
    },
    {
        "name": "Wainwright Airport, United States, AIN",
        "latLong": "70.6139, -159.857"
    },
    {
        "name": "Aitutaki Airport, Cook Islands, AIT",
        "latLong": "-18.8299, -159.765"
    },
    {
        "name": "Atiu Island, Cook Islands, AIU",
        "latLong": "-20.0333, -158.1"
    },
    {
        "name": "Campo Dell Oro Airport, France, AJA",
        "latLong": "41.9204, 8.79778"
    },
    {
        "name": "Al Jouf Airport, Saudi Arabia, AJF",
        "latLong": "29.7897, 40.1039"
    },
    {
        "name": "Agri Airport, Turkey, AJI",
        "latLong": "39.7239, 43.0618"
    },
    {
        "name": "Aizwal Airport, India, AJL",
        "latLong": "23.7361, 92.8083"
    },
    {
        "name": "Comoros, Comoros, AJN",
        "latLong": "-12.2234, 44.3709"
    },
    {
        "name": "Arvidsjaur Airport, Sweden, AJR",
        "latLong": "65.592, 19.2647"
    },
    {
        "name": "Santa Maria Airport, Brazil, AJU",
        "latLong": "-10.985, -37.0733"
    },
    {
        "name": "Ankang Airport, China, AKA",
        "latLong": "32.7026, 108.912"
    },
    {
        "name": "Atka Airport, United States, AKB",
        "latLong": "52.2217, -174.204"
    },
    {
        "name": "Kufra Airport, Libya, AKF",
        "latLong": "24.1819, 23.3189"
    },
    {
        "name": "Akiak Airport, United States, AKI",
        "latLong": "60.8866, -161.218"
    },
    {
        "name": "Asahikawa Airport, Japan, AKJ",
        "latLong": "43.665, 142.453"
    },
    {
        "name": "Akhiok Airport, United States, AKK",
        "latLong": "56.95, -154.167"
    },
    {
        "name": "Auckland Intl. Airport, New Zealand, AKL",
        "latLong": "-37.0085, 174.782"
    },
    {
        "name": "King Salmon Airport, United States, AKN",
        "latLong": "58.6775, -156.655"
    },
    {
        "name": "Anaktuvuk Pass Airport, United States, AKP",
        "latLong": "68.1916, -151.79"
    },
    {
        "name": "Kroonstad Airport, South Africa, AKS",
        "latLong": "-27.6667, 27.3167"
    },
    {
        "name": "Aksu Airport, China, AKU",
        "latLong": "41.171, 80.1982"
    },
    {
        "name": "Akulivik Airport, Canada, AKV",
        "latLong": "60.8142, -78.1509"
    },
    {
        "name": "Aktyubinsk Airport, Kazakhstan, AKX",
        "latLong": "50.2362, 57.2115"
    },
    {
        "name": "Sittwe Airport, Myanmar, AKY",
        "latLong": "20.1303, 92.8803"
    },
    {
        "name": "Alma Ata Airport, Kazakhstan, ALA",
        "latLong": "43.3608, 77.0319"
    },
    {
        "name": "Albany Intl. Airport, United States, ALB",
        "latLong": "42.7426, -73.809"
    },
    {
        "name": "Alicante Airport, Spain, ALC",
        "latLong": "38.2844, -0.5576"
    },
    {
        "name": "Alta Airport, Norway, ALF",
        "latLong": "69.9793, 23.3571"
    },
    {
        "name": "Houari Boumediene Airport, Algeria, ALG",
        "latLong": "36.6993, 3.21935"
    },
    {
        "name": "Albany Airport, Australia, ALH",
        "latLong": "-34.9447, 117.808"
    },
    {
        "name": "Alamogordo White Sands Regional Airport, United States, ALM",
        "latLong": "32.8407, -105.994"
    },
    {
        "name": "Waterloo Municipal Airport, United States, ALO",
        "latLong": "42.5509, -92.3951"
    },
    {
        "name": "Aleppo Intl. Airport, Syria, ALP",
        "latLong": "36.1808, 37.2267"
    },
    {
        "name": "San Luis Valley Regional Airport, United States, ALS",
        "latLong": "37.4444, -105.865"
    },
    {
        "name": "Walla Walla Regional Airport, United States, ALW",
        "latLong": "46.0879, -118.283"
    },
    {
        "name": "An-Nuzhah Airport, Egypt, ALY",
        "latLong": "31.1845, 29.9491"
    },
    {
        "name": "Amarillo Intl. Airport, United States, AMA",
        "latLong": "35.2177, -101.706"
    },
    {
        "name": "Sardar Vallabhbhai Patel Intl. Airport, India, AMD",
        "latLong": "23.0728, 72.6328"
    },
    {
        "name": "Ethiopia, Ethiopia, AMH",
        "latLong": "6.01327, 37.5405"
    },
    {
        "name": "Selaparang, Indonesia, AMI",
        "latLong": "-8.562, 116.098"
    },
    {
        "name": "Queen Alia Intl. Airport, Jordan, AMM",
        "latLong": "31.7231, 35.9936"
    },
    {
        "name": "Pattimura Airport, Indonesia, AMQ",
        "latLong": "-3.7067, 128.078"
    },
    {
        "name": "Schiphol Airport, Netherlands, AMS",
        "latLong": "52.3122, 4.77511"
    },
    {
        "name": "Amderma Airport, Russia, AMV",
        "latLong": "69.7638, 61.5586"
    },
    {
        "name": "Ambatomainty, Madagascar, AMY",
        "latLong": "38.4819, -100.608"
    },
    {
        "name": "Anchorage Intl. Airport, United States, ANC",
        "latLong": "61.1767, -149.961"
    },
    {
        "name": "A\u00e9roport d'Angers-Marc\u00e9, France, ANE",
        "latLong": "47.5603, -0.312222"
    },
    {
        "name": "Cerro Moreno Intl. Airport, Chile, ANF",
        "latLong": "-23.44, -70.4419"
    },
    {
        "name": "Brie Champniers Airport, France, ANG",
        "latLong": "45.7274, 0.21835"
    },
    {
        "name": "Aniak Airport, United States, ANI",
        "latLong": "61.5742, -159.535"
    },
    {
        "name": "Madagascar, Madagascar, ANM",
        "latLong": "-18.7772, 46.8543"
    },
    {
        "name": "Deurne Airport, Belgium, ANR",
        "latLong": "51.1896, 4.45236"
    },
    {
        "name": "V C Bird Intl. Airport, Antigua and Barbuda, ANU",
        "latLong": "17.1375, -61.79"
    },
    {
        "name": "Anvik Airport, United States, ANV",
        "latLong": "62.65, -160.217"
    },
    {
        "name": "Andoya Airport, Norway, ANX",
        "latLong": "69.3088, 16.1236"
    },
    {
        "name": "Altenburg Nobitz, Germany, AOC",
        "latLong": "50.9794, 12.5111"
    },
    {
        "name": "Anadolu University Airport, Turkey, AOE",
        "latLong": "39.7905, 30.5172"
    },
    {
        "name": "Falconara Airport, Italy, AOI",
        "latLong": "43.6158, 13.3634"
    },
    {
        "name": "Aomori Airport, Japan, AOJ",
        "latLong": "40.7357, 140.69"
    },
    {
        "name": "Karpathos Airport, Greece, AOK",
        "latLong": "35.4239, 27.1472"
    },
    {
        "name": "Altoona-Blair County Airport, United States, AOO",
        "latLong": "40.2952, -78.324"
    },
    {
        "name": "Sultan Abdul Halim Airport, Malaysia, AOR",
        "latLong": "6.1947, 100.404"
    },
    {
        "name": "Amook Bay Seaplane Base, United States, AOS",
        "latLong": "57.4672, -153.839"
    },
    {
        "name": "Naples Municipal Airport, United States, APF",
        "latLong": "26.1483, -81.7745"
    },
    {
        "name": "French Polynesia, French Polynesia, APK",
        "latLong": "-8.64687, -131.787"
    },
    {
        "name": "Nampula Airport, Mozambique, APL",
        "latLong": "-15.1, 39.2814"
    },
    {
        "name": "Alpena County Regional Airport, United States, APN",
        "latLong": "45.07, -83.5683"
    },
    {
        "name": "Apartado Airport, Colombia, APO",
        "latLong": "7.88361, -76.6321"
    },
    {
        "name": "Faleolo Airport, Samoa, APW",
        "latLong": "-13.8255, -171.993"
    },
    {
        "name": "Anqing Airport, China, AQG",
        "latLong": "30.5167, 117.033"
    },
    {
        "name": "Hafr Al Batin Airport, Saudi Arabia, AQI",
        "latLong": "28.3317, 46.13"
    },
    {
        "name": "Aqaba Intl. Airport, Jordan, AQJ",
        "latLong": "29.6119, 35.0178"
    },
    {
        "name": "Rodriguez Ballon Airport, Peru, AQP",
        "latLong": "-16.3372, -71.5692"
    },
    {
        "name": "Arctic Village Airport, United States, ARC",
        "latLong": "68.1167, -145.583"
    },
    {
        "name": "Alor Island, Indonesia, ARD",
        "latLong": "35.1437, -93.1848"
    },
    {
        "name": "Arkhangelsk Airport, Russia, ARH",
        "latLong": "64.4465, 40.4242"
    },
    {
        "name": "Chacalluta Airport, Chile, ARI",
        "latLong": "-18.3458, -70.3358"
    },
    {
        "name": "Arusha Airport, Tanzania, ARK",
        "latLong": "-3.36515, 36.6738"
    },
    {
        "name": "Armidale Airport, Australia, ARM",
        "latLong": "-30.5308, 151.618"
    },
    {
        "name": "Arlanda Airport, Sweden, ARN",
        "latLong": "59.6521, 17.9317"
    },
    {
        "name": "Watertown Intl. Airport, United States, ART",
        "latLong": "43.9942, -76.0232"
    },
    {
        "name": "Aracatuba Airport, Brazil, ARU",
        "latLong": "-21.1436, -50.4261"
    },
    {
        "name": "Lakelan-Noble F. Lee Memerial Field Airport, United States, ARV",
        "latLong": "45.9296, -89.7371"
    },
    {
        "name": "Ceala Airport, Romania, ARW",
        "latLong": "46.1805, 21.2609"
    },
    {
        "name": "Assab, Ethiopia, ASA",
        "latLong": "31.4124, -97.0528"
    },
    {
        "name": "Ashkhabad Northwest Airport, Turkmenistan, ASB",
        "latLong": "37.9842, 58.3294"
    },
    {
        "name": "Andros Town Airport, Bahamas, ASD",
        "latLong": "24.6978, -77.7961"
    },
    {
        "name": "Aspen Pitkin County Airport-Sardy Field, United States, ASE",
        "latLong": "39.2197, -106.864"
    },
    {
        "name": "Astrakhan Southeast Airport, Russia, ASF",
        "latLong": "46.2971, 48.0515"
    },
    {
        "name": "Wideawake Fld, St. Helena, ASI",
        "latLong": "-7.93586, -14.4081"
    },
    {
        "name": "Amami Airport, Japan, ASJ",
        "latLong": "28.431, 129.712"
    },
    {
        "name": "Yohannes Iv Intl. Airport, Eritrea, ASM",
        "latLong": "15.2906, 38.9103"
    },
    {
        "name": "Ethiopia, Ethiopia, ASO",
        "latLong": "10.0611, 34.5344"
    },
    {
        "name": "Alice Springs Airport, Australia, ASP",
        "latLong": "-23.802, 133.892"
    },
    {
        "name": "Erkilet Airport, Turkey, ASR",
        "latLong": "38.7708, 35.4939"
    },
    {
        "name": "Silvio Pettirossi Intl. Airport, Paraguay, ASU",
        "latLong": "-25.2397, -57.5189"
    },
    {
        "name": "Amboseli, Kenya, ASV",
        "latLong": "-2.63333, 37.25"
    },
    {
        "name": "Aswan Airport, Egypt, ASW",
        "latLong": "23.965, 32.8217"
    },
    {
        "name": "Atbara, Sudan, ATB",
        "latLong": "17.7, 33.9833"
    },
    {
        "name": "Arthur's Town Airport, Bahamas, ATC",
        "latLong": "24.6287, -75.6734"
    },
    {
        "name": "Atoifi, Solomon Islands, ATD",
        "latLong": "-8.86667, 161.033"
    },
    {
        "name": "Eleftherios Venizelos Intl. Airport, Greece, ATH",
        "latLong": "37.8937, 23.7235"
    },
    {
        "name": "Atqasuk Airport, United States, ATK",
        "latLong": "70.4639, -157.331"
    },
    {
        "name": "Hartsfield-Jackson Atlanta Intl. Airport, United States, ATL",
        "latLong": "33.6558, -84.4333"
    },
    {
        "name": "Altamira Airport, Brazil, ATM",
        "latLong": "-3.2506, -52.2517"
    },
    {
        "name": "Raja Sansi Airport, India, ATQ",
        "latLong": "31.7131, 74.7955"
    },
    {
        "name": "Atar Airport, Mauritania, ATR",
        "latLong": "20.5067, -13.0436"
    },
    {
        "name": "Atmautluak Airport, United States, ATT",
        "latLong": "60.865, -162.276"
    },
    {
        "name": "Outagamie County Airport, United States, ATW",
        "latLong": "44.2603, -88.5111"
    },
    {
        "name": "Watertown Municipal Airport, United States, ATY",
        "latLong": "44.9216, -97.1609"
    },
    {
        "name": "Asyut Airport, Egypt, ATZ",
        "latLong": "27.0411, 31.0114"
    },
    {
        "name": "Reina Beatrix Intl. Airport, Aruba, AUA",
        "latLong": "12.5022, -70.0139"
    },
    {
        "name": "Santiago Perez Airport, Colombia, AUC",
        "latLong": "7.0703, -70.7406"
    },
    {
        "name": "Augusta State Airport, United States, AUG",
        "latLong": "44.3181, -69.7933"
    },
    {
        "name": "Abu Dhabi Intl. Airport, United Arab Emirates, AUH",
        "latLong": "24.4331, 54.6489"
    },
    {
        "name": "Alakanuk Airport, United States, AUK",
        "latLong": "62.6833, -164.633"
    },
    {
        "name": "Atuona Airport, French Polynesia, AUQ",
        "latLong": "-9.7719, -139.015"
    },
    {
        "name": "Austin-Bergstrom Intl. Airport, United States, AUS",
        "latLong": "30.2027, -97.6653"
    },
    {
        "name": "Araguaina Airport, Brazil, AUX",
        "latLong": "-7.2281, -48.2403"
    },
    {
        "name": "Vanuatu, Vanuatu, AUY",
        "latLong": "-20.1909, 169.825"
    },
    {
        "name": "Asheville Regional Airport, United States, AVL",
        "latLong": "35.4349, -82.5373"
    },
    {
        "name": "Avignon-Caumont Airport, France, AVN",
        "latLong": "43.9056, 4.89951"
    },
    {
        "name": "Wilkes Barre Scranton Intl. Airport, United States, AVP",
        "latLong": "41.3354, -75.7294"
    },
    {
        "name": "Avu Avu, Solomon Islands, AVU",
        "latLong": "-9.85, 160.417"
    },
    {
        "name": "Awaba, Papua New Guinea, AWB",
        "latLong": "-8.01667, 142.75"
    },
    {
        "name": "Aniwa Airport, Vanuatu, AWD",
        "latLong": "-19.2501, 169.598"
    },
    {
        "name": "Ahvaz Airport, Iran, AWZ",
        "latLong": "31.3378, 48.7597"
    },
    {
        "name": "Wallblake Airport, Anguilla, AXA",
        "latLong": "18.2103, -63.0575"
    },
    {
        "name": "Alexandroupolis Airport, Greece, AXD",
        "latLong": "40.8567, 25.9567"
    },
    {
        "name": "El Eden Airport, Colombia, AXM",
        "latLong": "4.4564, -75.7681"
    },
    {
        "name": "Spring Point Airport, Bahamas, AXP",
        "latLong": "22.4441, -73.9775"
    },
    {
        "name": "French Polynesia, French Polynesia, AXR",
        "latLong": "-15.5098, -146.538"
    },
    {
        "name": "Akita Airport, Japan, AXT",
        "latLong": "39.6153, 140.219"
    },
    {
        "name": "Axum, Ethiopia, AXU",
        "latLong": "14.147, 38.7726"
    },
    {
        "name": "Ayers Rock Airport, Australia, AYQ",
        "latLong": "-25.1872, 130.977"
    },
    {
        "name": "Antalya Airport, Turkey, AYT",
        "latLong": "36.9022, 30.7917"
    },
    {
        "name": "Phoenix-Mesa Gateway Airport, United States, AZA",
        "latLong": "33.3078, -111.656"
    },
    {
        "name": "Yazd Airport, Iran, AZD",
        "latLong": "31.905, 54.2786"
    },
    {
        "name": "Andizhan Airport, Uzbekistan, AZN",
        "latLong": "40.7324, 72.2931"
    },
    {
        "name": "Kalamazoo-Battle Creek Intl. Airport, United States, AZO",
        "latLong": "42.2398, -85.5563"
    },
    {
        "name": "Touat Airport, Algeria, AZR",
        "latLong": "27.8378, -0.1864"
    },
    {
        "name": "Samana El Catey Intl. Airport, Dominican Republic, AZS",
        "latLong": "19.2099, -69.3279"
    },
    {
        "name": "Baguio Airport, Philippines, BAG",
        "latLong": "16.3764, 120.619"
    },
    {
        "name": "Bahrain Intl. Airport, Bahrain, BAH",
        "latLong": "26.2736, 50.6234"
    },
    {
        "name": "Batman Airport, Turkey, BAL",
        "latLong": "37.93, 41.1167"
    },
    {
        "name": "Ernesto Cortissoz Airport, Colombia, BAQ",
        "latLong": "10.8961, -74.7789"
    },
    {
        "name": "Balalae, Solomon Islands, BAS",
        "latLong": "-7.98333, 155.9"
    },
    {
        "name": "Bauru Airport, Brazil, BAU",
        "latLong": "-22.345, -49.0531"
    },
    {
        "name": "Baotou Airport, China, BAV",
        "latLong": "40.5679, 109.998"
    },
    {
        "name": "Barnaui West Airport, Russia, BAX",
        "latLong": "53.3667, 83.75"
    },
    {
        "name": "Baia Mare, Romania, BAY",
        "latLong": "47.6589, 23.465"
    },
    {
        "name": "Balmaceda Airport, Chile, BBA",
        "latLong": "-45.9167, -71.6869"
    },
    {
        "name": "Bhubaneswar Airport, India, BBI",
        "latLong": "20.2466, 85.8152"
    },
    {
        "name": "Kasane Airport, Botswana, BBK",
        "latLong": "-17.8333, 25.1667"
    },
    {
        "name": "Bario Airport, Malaysia, BBN",
        "latLong": "3.73333, 115.467"
    },
    {
        "name": "Berbera Airport, Somalia, BBO",
        "latLong": "10.3917, 44.95"
    },
    {
        "name": "Blackbushe Airport, United Kingdom, BBS",
        "latLong": "51.3252, -0.84173"
    },
    {
        "name": "Aeroportul National Bucuresti-Baneasa, Romania, BBU",
        "latLong": "44.4966, 26.087"
    },
    {
        "name": "Baracoa Airport, Cuba, BCA",
        "latLong": "20.3644, -74.5064"
    },
    {
        "name": "Bacolod Airport, Philippines, BCD",
        "latLong": "10.6444, 122.929"
    },
    {
        "name": "Barcaldine Aerodrome, Australia, BCI",
        "latLong": "-23.5635, 145.305"
    },
    {
        "name": "Barra Colorado Airport, Costa Rica, BCL",
        "latLong": "10.7856, -83.5966"
    },
    {
        "name": "Luizi Calugara Airport, Romania, BCM",
        "latLong": "46.5283, 26.8997"
    },
    {
        "name": "Barcelona Intl. Airport, Spain, BCN",
        "latLong": "41.3006, 2.07976"
    },
    {
        "name": "Bermuda Intl. Airport, Bermuda, BDA",
        "latLong": "32.3675, -64.6903"
    },
    {
        "name": "Bundaberg Airport, Australia, BDB",
        "latLong": "-24.9046, 152.322"
    },
    {
        "name": "Badu Island Airport, Australia, BDD",
        "latLong": "-10.1214, 142.142"
    },
    {
        "name": "Bandar Lengeh Airport, Iran, BDH",
        "latLong": "26.5333, 54.8239"
    },
    {
        "name": "Syamsuddin Noor Airport, Indonesia, BDJ",
        "latLong": "-3.4425, 114.757"
    },
    {
        "name": "Bradley Intl. Airport, United States, BDL",
        "latLong": "41.9271, -72.6816"
    },
    {
        "name": "Husein Sastranegara Airport, Indonesia, BDO",
        "latLong": "-6.9017, 107.576"
    },
    {
        "name": "Bhadrapur, Nepal, BDP",
        "latLong": "26.5667, 88.0833"
    },
    {
        "name": "Vadodara Airport, India, BDQ",
        "latLong": "22.3367, 73.2264"
    },
    {
        "name": "Igor I Sikorsky Memorial Airport, United States, BDR",
        "latLong": "41.1636, -73.1283"
    },
    {
        "name": "Casale Airport, Italy, BDS",
        "latLong": "40.6626, 17.9426"
    },
    {
        "name": "Bardufoss Airport, Norway, BDU",
        "latLong": "69.0589, 18.539"
    },
    {
        "name": "Benbecula Airport, United Kingdom, BEB",
        "latLong": "57.4756, -7.37041"
    },
    {
        "name": "Surcin Airport, Serbia, BEG",
        "latLong": "44.8192, 20.3122"
    },
    {
        "name": "Val de Caes Intl. Airport, Brazil, BEL",
        "latLong": "-1.3844, -48.4783"
    },
    {
        "name": "Benina Intl, Libya, BEN",
        "latLong": "35.6425, -87.1192"
    },
    {
        "name": "Guipavas Airport, France, BES",
        "latLong": "48.4458, -4.41511"
    },
    {
        "name": "Bethel Airport, United States, BET",
        "latLong": "60.7788, -161.847"
    },
    {
        "name": "Bedourie Aerodrome, Australia, BEU",
        "latLong": "-24.3544, 139.463"
    },
    {
        "name": "Beira Airport, Mozambique, BEW",
        "latLong": "-19.7958, 34.9089"
    },
    {
        "name": "Beirut Intl. Airport, Lebanon, BEY",
        "latLong": "33.825, 35.4925"
    },
    {
        "name": "Bradford Regional Airport, United States, BFD",
        "latLong": "41.7964, -78.6407"
    },
    {
        "name": "Bielefeld, Germany, BFE",
        "latLong": "52, 8.5"
    },
    {
        "name": "William B Heilig Field Airport, United States, BFF",
        "latLong": "41.8683, -103.597"
    },
    {
        "name": "King County Intl. Airport-Boeing Field, United States, BFI",
        "latLong": "47.5369, -122.304"
    },
    {
        "name": "Kern County-Meadows Field Airport, United States, BFL",
        "latLong": "35.4288, -119.044"
    },
    {
        "name": "J B M Hertzog Airport, South Africa, BFN",
        "latLong": "-29.0942, 26.3027"
    },
    {
        "name": "Aldergrove Airport, United Kingdom, BFS",
        "latLong": "54.6542, -6.225"
    },
    {
        "name": "Buri Ram, Thailand, BFV",
        "latLong": "15.2295, 103.253"
    },
    {
        "name": "Palonegro Airport, Colombia, BGA",
        "latLong": "7.1217, -73.1883"
    },
    {
        "name": "Bangui M Poko Airport, Central African Republic, BGF",
        "latLong": "4.3961, 18.5203"
    },
    {
        "name": "Grantley Adams Intl. Airport, Barbados, BGI",
        "latLong": "13.0719, -59.4939"
    },
    {
        "name": "Greater Binghamton Edwin A Link Field Airport, United States, BGM",
        "latLong": "42.2082, -75.9825"
    },
    {
        "name": "Bergen Flesland Airport, Norway, BGO",
        "latLong": "60.2907, 5.22065"
    },
    {
        "name": "Bangor Intl. Airport, United States, BGR",
        "latLong": "44.8086, -68.8167"
    },
    {
        "name": "Orio Al Serio Airport, Italy, BGY",
        "latLong": "45.6664, 9.699"
    },
    {
        "name": "Hancock County-Bar Harbor Airport, United States, BHB",
        "latLong": "44.4461, -68.3615"
    },
    {
        "name": "George Best Belfast City Airport, United Kingdom, BHD",
        "latLong": "54.6151, -5.87096"
    },
    {
        "name": "Woodbourne Airport, New Zealand, BHE",
        "latLong": "-41.52, 173.87"
    },
    {
        "name": "Brus Laguna Airport, Honduras, BHG",
        "latLong": "15.7636, -84.551"
    },
    {
        "name": "Bisha Airport, Saudi Arabia, BHH",
        "latLong": "19.9817, 42.6267"
    },
    {
        "name": "Bahia Blanca Cte Espora Naval Air Base, Argentina, BHI",
        "latLong": "-38.7261, -62.1539"
    },
    {
        "name": "Bhuj Airport, India, BHJ",
        "latLong": "23.2875, 69.6706"
    },
    {
        "name": "Bukhara Airport, Uzbekistan, BHK",
        "latLong": "39.7948, 64.4895"
    },
    {
        "name": "Birmingham Intl. Airport, United States, BHM",
        "latLong": "33.5604, -86.7492"
    },
    {
        "name": "Bairagarh Airport, India, BHO",
        "latLong": "23.2844, 77.3383"
    },
    {
        "name": "Broken Hill Airport, Australia, BHQ",
        "latLong": "-32.0031, 141.466"
    },
    {
        "name": "Bharatpur, Nepal, BHR",
        "latLong": "25.9173, 50.6071"
    },
    {
        "name": "Bathurst Airport, Australia, BHS",
        "latLong": "-33.4121, 149.657"
    },
    {
        "name": "Bhavnagar Airport, India, BHU",
        "latLong": "21.7536, 72.1867"
    },
    {
        "name": "Bahawalpur Airport, Pakistan, BHV",
        "latLong": "29.3444, 71.7125"
    },
    {
        "name": "Birmingham Intl. Airport, United Kingdom, BHX",
        "latLong": "52.4531, -1.73847"
    },
    {
        "name": "Beihai, China, BHY",
        "latLong": "21.4833, 109.083"
    },
    {
        "name": "Poretta Airport, France, BIA",
        "latLong": "42.5497, 9.48341"
    },
    {
        "name": "Block Island State Airport, United States, BID",
        "latLong": "41.1696, -71.58"
    },
    {
        "name": "Enyu Airfield, Marshall Islands, BII",
        "latLong": "11.5833, 165.383"
    },
    {
        "name": "Frans Kaisiepo Airport, Indonesia, BIK",
        "latLong": "-1, 136.117"
    },
    {
        "name": "Logan Intl. Airport, United States, BIL",
        "latLong": "45.8034, -108.537"
    },
    {
        "name": "Bilbao Airport, Spain, BIO",
        "latLong": "43.3025, -2.91112"
    },
    {
        "name": "Anglet Airport, France, BIQ",
        "latLong": "43.472, -1.53137"
    },
    {
        "name": "Biratnagar Airport, Nepal, BIR",
        "latLong": "26.4814, 87.2647"
    },
    {
        "name": "Bismarck Municipal Airport, United States, BIS",
        "latLong": "46.7745, -100.757"
    },
    {
        "name": "Soummam Airport, Algeria, BJA",
        "latLong": "36.7133, 5.0697"
    },
    {
        "name": "Bojnord, Iran, BJB",
        "latLong": "37.4933, 57.3007"
    },
    {
        "name": "Batsfjord Airport, Norway, BJF",
        "latLong": "70.6031, 29.6948"
    },
    {
        "name": "Bemidji-Beltrami County Airport, United States, BJI",
        "latLong": "47.5065, -94.9338"
    },
    {
        "name": "Yundum Intl. Airport, Gambia, BJL",
        "latLong": "13.3372, -16.6544"
    },
    {
        "name": "Bujumbura Airport, Burundi, BJM",
        "latLong": "-3.3317, 29.3208"
    },
    {
        "name": "Ethiopia, Ethiopia, BJR",
        "latLong": "11.5564, 37.3687"
    },
    {
        "name": "Milas Airport, Turkey, BJV",
        "latLong": "37.0413, 27.4362"
    },
    {
        "name": "Bajawa Airport, Indonesia, BJW",
        "latLong": "-8.78333, 120.983"
    },
    {
        "name": "Silao Airport, Mexico, BJX",
        "latLong": "20.9903, -101.478"
    },
    {
        "name": "Talavera la Real Airport, Spain, BJZ",
        "latLong": "38.8939, -6.81921"
    },
    {
        "name": "Bykovo Airport, Russia, BKA",
        "latLong": "55.5516, 37.9763"
    },
    {
        "name": "Buckland Airport, United States, BKC",
        "latLong": "65.9833, -161.167"
    },
    {
        "name": "Kota Kinabalu Airport, Malaysia, BKI",
        "latLong": "5.9386, 116.049"
    },
    {
        "name": "Bangkok Intl. Airport, Thailand, BKK",
        "latLong": "13.9144, 100.608"
    },
    {
        "name": "Malaysia, Malaysia, BKM",
        "latLong": "3.94515, 114.402"
    },
    {
        "name": "Bamako Senou Airport, Mali, BKO",
        "latLong": "12.5361, -7.9486"
    },
    {
        "name": "Blackall Aerodrome, Australia, BKQ",
        "latLong": "-24.4292, 145.429"
    },
    {
        "name": "Padangkemiling Airport, Indonesia, BKS",
        "latLong": "-3.8633, 102.339"
    },
    {
        "name": "Raleigh County Memorial Airport, United States, BKW",
        "latLong": "37.7849, -81.1174"
    },
    {
        "name": "Bukavu Kavumu Airport, Congo, BKY",
        "latLong": "-2.3014, 28.8139"
    },
    {
        "name": "Jose Antonio Anzoategui Airport, Venezuela, BLA",
        "latLong": "10.1103, -64.6872"
    },
    {
        "name": "Dala Airport, Sweden, BLE",
        "latLong": "60.4297, 15.5081"
    },
    {
        "name": "Bellingham Intl. Airport, United States, BLI",
        "latLong": "48.7955, -122.532"
    },
    {
        "name": "Algeria, Algeria, BLJ",
        "latLong": "35.5572, 6.17229"
    },
    {
        "name": "Blackpool Airport, United Kingdom, BLK",
        "latLong": "53.7756, -3.04118"
    },
    {
        "name": "Billund Airport, Denmark, BLL",
        "latLong": "55.742, 9.15354"
    },
    {
        "name": "Bologna Airport, Italy, BLQ",
        "latLong": "44.5345, 11.2903"
    },
    {
        "name": "HAL Bangalore Intl. Airport, India, BLR",
        "latLong": "12.9526, 77.6656"
    },
    {
        "name": "Blackwater Aerodrome, Australia, BLT",
        "latLong": "-23.6012, 148.805"
    },
    {
        "name": "Chileka Intl. Airport, Malawi, BLZ",
        "latLong": "-15.6764, 34.9714"
    },
    {
        "name": "Bromma Airport, Sweden, BMA",
        "latLong": "59.3562, 17.9378"
    },
    {
        "name": "Broome Intl. Airport, Australia, BME",
        "latLong": "-17.9464, 122.233"
    },
    {
        "name": "Bloomington Normal Airport, United States, BMI",
        "latLong": "40.4841, -88.9134"
    },
    {
        "name": "Borkum Airport, Germany, BMK",
        "latLong": "53.5797, 6.71294"
    },
    {
        "name": "Bhamo Airport, Myanmar, BMO",
        "latLong": "24.2739, 97.2517"
    },
    {
        "name": "Mohammad Salahuddin Airport, Indonesia, BMU",
        "latLong": "-8.5444, 118.682"
    },
    {
        "name": "Ban Me Thaut, Vietnam, BMV",
        "latLong": "12.6667, 108.05"
    },
    {
        "name": "Algeria, Algeria, BMW",
        "latLong": "28.0269, 1.65284"
    },
    {
        "name": "Belep Island, New Caledonia, BMY",
        "latLong": "-19.75, 163.667"
    },
    {
        "name": "Nashville Intl. Airport, United States, BNA",
        "latLong": "36.1342, -86.6682"
    },
    {
        "name": "Bandar Abbass Intl. Airport, Iran, BND",
        "latLong": "27.225, 56.3783"
    },
    {
        "name": "Brisbane Intl. Airport, Australia, BNE",
        "latLong": "-27.3589, 153.122"
    },
    {
        "name": "Benin Airport, Nigeria, BNI",
        "latLong": "6.3161, 5.6"
    },
    {
        "name": "Hangelar, Germany, BNJ",
        "latLong": "50.7667, 7.16449"
    },
    {
        "name": "Ballina Airport, Australia, BNK",
        "latLong": "-28.8342, 153.555"
    },
    {
        "name": "Bronnoy Airport, Norway, BNN",
        "latLong": "65.462, 12.2161"
    },
    {
        "name": "Barinas Airport, Venezuela, BNS",
        "latLong": "8.6211, -70.2181"
    },
    {
        "name": "Banja Luka Airport, Bosnia and Herzegovina, BNX",
        "latLong": "44.9403, 17.2992"
    },
    {
        "name": "Bellona Airport, Solomon Islands, BNY",
        "latLong": "-11.2961, 159.801"
    },
    {
        "name": "Motu-Mute Airport, French Polynesia, BOB",
        "latLong": "-16.45, -151.767"
    },
    {
        "name": "Bocas del Toro Airport, Panama, BOC",
        "latLong": "9.34, -82.2514"
    },
    {
        "name": "Bordeaux Airport, France, BOD",
        "latLong": "44.8291, -0.70278"
    },
    {
        "name": "Eldorado Intl. Airport, Colombia, BOG",
        "latLong": "4.69895, -74.1435"
    },
    {
        "name": "Bournemouth Intl. Airport, United Kingdom, BOH",
        "latLong": "50.7797, -1.83424"
    },
    {
        "name": "Boise Air Terminal, United States, BOI",
        "latLong": "43.5709, -116.222"
    },
    {
        "name": "Bourgas Airport, Bulgaria, BOJ",
        "latLong": "42.5667, 27.5"
    },
    {
        "name": "Chhatrapati Shivaji Intl. Airport, India, BOM",
        "latLong": "19.0932, 72.8654"
    },
    {
        "name": "Flamingo Airport, Netherlands Antilles, BON",
        "latLong": "12.1392, -68.2697"
    },
    {
        "name": "Bodo Airport, Norway, BOO",
        "latLong": "67.2709, 14.3653"
    },
    {
        "name": "Gen E L Logan Intl. Airport, United States, BOS",
        "latLong": "42.3717, -71.0281"
    },
    {
        "name": "Bartow Municipal Airport, United States, BOW",
        "latLong": "27.9493, -81.7818"
    },
    {
        "name": "Bobo Dioulasso Airport, Burkina Faso, BOY",
        "latLong": "11.1636, -4.3264"
    },
    {
        "name": "Sepinggan Airport, Indonesia, BPN",
        "latLong": "-1.2681, 116.897"
    },
    {
        "name": "Porto Seguro Airport, Brazil, BPS",
        "latLong": "-16.4406, -39.0833"
    },
    {
        "name": "Jefferson County Airport, United States, BPT",
        "latLong": "29.9551, -94.0185"
    },
    {
        "name": "Bangda Airport, China, BPX",
        "latLong": "31.1442, 97.174"
    },
    {
        "name": "Besalampy Airport, Madagascar, BPY",
        "latLong": "-16.7431, 44.4803"
    },
    {
        "name": "Glynco Jetport Airport, United States, BQK",
        "latLong": "31.2525, -81.4703"
    },
    {
        "name": "Boulia Aerodrome, Australia, BQL",
        "latLong": "-22.9122, 139.897"
    },
    {
        "name": "Rafael Hernandez Airport, United States, BQN",
        "latLong": "18.496, -67.1357"
    },
    {
        "name": "Blagoveshchensk Northwest Airport, Russia, BQS",
        "latLong": "50.4243, 127.409"
    },
    {
        "name": "Barreiras Airport, Brazil, BRA",
        "latLong": "-12.0792, -45.01"
    },
    {
        "name": "San Carlos de Bariloche Airport, Argentina, BRC",
        "latLong": "-41.1511, -71.1581"
    },
    {
        "name": "Brainerd-Crow Wing County Regional Airport, United States, BRD",
        "latLong": "46.3909, -94.1413"
    },
    {
        "name": "Bremen Airport, Germany, BRE",
        "latLong": "53.0523, 8.78533"
    },
    {
        "name": "Palese Macchie Airport, Italy, BRI",
        "latLong": "41.1376, 16.7674"
    },
    {
        "name": "Bourke Airport, Australia, BRK",
        "latLong": "-30.0403, 145.953"
    },
    {
        "name": "Burlington Municipal Airport, United States, BRL",
        "latLong": "40.7816, -91.1197"
    },
    {
        "name": "Barquisimeto Airport, Venezuela, BRM",
        "latLong": "10.0453, -69.3561"
    },
    {
        "name": "Bern Belp Airport, Switzerland, BRN",
        "latLong": "46.9124, 7.49929"
    },
    {
        "name": "Brownsville-South Padre Island Intl. Air, United States, BRO",
        "latLong": "25.9064, -97.4321"
    },
    {
        "name": "Turany Airport, Czech Republic, BRQ",
        "latLong": "49.1535, 16.6908"
    },
    {
        "name": "North Bay Airport, United Kingdom, BRR",
        "latLong": "57.0251, -7.44967"
    },
    {
        "name": "Bristol Intl. Airport, United Kingdom, BRS",
        "latLong": "51.3848, -2.70526"
    },
    {
        "name": "Brussels Airport, Belgium, BRU",
        "latLong": "50.899, 4.4859"
    },
    {
        "name": "Bremerhaven Airport, Germany, BRV",
        "latLong": "53.5537, 8.78359"
    },
    {
        "name": "Wiley Post Will Rogers Memorial Airport, United States, BRW",
        "latLong": "71.2892, -156.772"
    },
    {
        "name": "Somalia, Somalia, BSA",
        "latLong": "11.2775, 49.1814"
    },
    {
        "name": "Juscelino Kubitschek Intl. Airport, Brazil, BSB",
        "latLong": "-15.8622, -47.9122"
    },
    {
        "name": "Jose Celestino Mutis Airport, Colombia, BSC",
        "latLong": "6.1786, -77.3956"
    },
    {
        "name": "Baoshan Airport, China, BSD",
        "latLong": "25.0604, 99.1639"
    },
    {
        "name": "Bata Airport, Equatorial Guinea, BSG",
        "latLong": "1.9046, 9.8032"
    },
    {
        "name": "Biskra Airport, Algeria, BSK",
        "latLong": "34.7933, 5.74"
    },
    {
        "name": "Euroairport Basel-Mulhouse-Freiburg, France, BSL",
        "latLong": "47.5998, 7.532"
    },
    {
        "name": "Basco Airport, Philippines, BSO",
        "latLong": "20.4531, 121.978"
    },
    {
        "name": "Bassein, Myanmar, BSX",
        "latLong": "45.4264, 5.14384"
    },
    {
        "name": "Hang Nadim Airport, Indonesia, BTH",
        "latLong": "1.1306, 104.134"
    },
    {
        "name": "Barter Island Airport, United States, BTI",
        "latLong": "70.1478, -143.579"
    },
    {
        "name": "Blangbintang Airport, Indonesia, BTJ",
        "latLong": "5.5197, 95.4181"
    },
    {
        "name": "Bratsk, Russia, BTK",
        "latLong": "56.1667, 102.067"
    },
    {
        "name": "W K Kellogg Airport, United States, BTL",
        "latLong": "42.3046, -85.2448"
    },
    {
        "name": "Bert Mooney Airport, United States, BTM",
        "latLong": "45.9544, -112.503"
    },
    {
        "name": "Baton Rouge Metropolitan Airport, United States, BTR",
        "latLong": "30.533, -91.1567"
    },
    {
        "name": "Bratislava Airport, Slovakia, BTS",
        "latLong": "48.2063, 17.2055"
    },
    {
        "name": "Bettles Airport, United States, BTT",
        "latLong": "66.9134, -151.551"
    },
    {
        "name": "Bintulu Airport, Malaysia, BTU",
        "latLong": "3.1728, 113.043"
    },
    {
        "name": "Burlington Intl. Airport, United States, BTV",
        "latLong": "44.4688, -73.1552"
    },
    {
        "name": "Buka, Papua New Guinea, BUA",
        "latLong": "-5.42232, 154.673"
    },
    {
        "name": "Burketown Aerodrome, Australia, BUC",
        "latLong": "-17.7484, 139.532"
    },
    {
        "name": "Ferihegy Airport, Hungary, BUD",
        "latLong": "47.4453, 19.2195"
    },
    {
        "name": "Greater Buffalo Intl. Airport, United States, BUF",
        "latLong": "42.9309, -78.738"
    },
    {
        "name": "Bulolo, Papua New Guinea, BUL",
        "latLong": "33.9116, -102.638"
    },
    {
        "name": "Buenaventura Airport, Colombia, BUN",
        "latLong": "3.8183, -76.9931"
    },
    {
        "name": "Burao, Somalia, BUO",
        "latLong": "65.8514, 12.344"
    },
    {
        "name": "Bulawayo Airport, Zimbabwe, BUQ",
        "latLong": "-20.0169, 28.6181"
    },
    {
        "name": "Burbank Glendale Pasadena Airport, United States, BUR",
        "latLong": "34.1963, -118.352"
    },
    {
        "name": "Batumi, Georgia, BUS",
        "latLong": "50.0662, 2.96519"
    },
    {
        "name": "Bunia Airport, Congo, BUX",
        "latLong": "1.5717, 30.2128"
    },
    {
        "name": "Bushehr Airport, Iran, BUZ",
        "latLong": "28.9494, 50.8311"
    },
    {
        "name": "Boa Vista Intl. Airport, Brazil, BVB",
        "latLong": "2.8417, -60.6917"
    },
    {
        "name": "Boa Vista Airport, Cape Verde, BVC",
        "latLong": "16.0961, -22.8172"
    },
    {
        "name": "Berlevag Airport, Norway, BVG",
        "latLong": "70.8702, 29.0294"
    },
    {
        "name": "Birdsville Airport, Australia, BVI",
        "latLong": "-25.8971, 139.349"
    },
    {
        "name": "Bhairawa Airport, Nepal, BWA",
        "latLong": "27.5042, 83.42"
    },
    {
        "name": "Walney Island Airport, United Kingdom, BWF",
        "latLong": "54.1284, -3.26249"
    },
    {
        "name": "Baltimore-Washington Intl. Thurgood Mars, United States, BWI",
        "latLong": "39.1841, -76.6745"
    },
    {
        "name": "Bol, Croatia, BWK",
        "latLong": "43.2619, 16.655"
    },
    {
        "name": "Brunei Intl. Airport, Brunei, BWN",
        "latLong": "4.9458, 114.924"
    },
    {
        "name": "Burnie Wynyard Airport, Australia, BWT",
        "latLong": "-40.9935, 145.725"
    },
    {
        "name": "Santa Clara Airport, Cuba, BWW",
        "latLong": "22.4922, -79.9408"
    },
    {
        "name": "Unknown, Iran, BXR",
        "latLong": "29.4375, -98.4618"
    },
    {
        "name": "Butuan Airport, Philippines, BXU",
        "latLong": "8.9528, 125.476"
    },
    {
        "name": "Bayamo Airport, Cuba, BYM",
        "latLong": "20.3972, -76.6192"
    },
    {
        "name": "Unknown, Mongolia, BYN",
        "latLong": "62.0526, 17.1936"
    },
    {
        "name": "Philip S W Goldson Intl. Airport, Belize, BZE",
        "latLong": "17.5386, -88.3042"
    },
    {
        "name": "Szwederowo Airport, Poland, BZG",
        "latLong": "53.0918, 17.9821"
    },
    {
        "name": "Briansk, Russian Federation, BZK",
        "latLong": "53.2667, 34.3333"
    },
    {
        "name": "Unknown, Bangladesh, BZL",
        "latLong": "22.6667, 90.3417"
    },
    {
        "name": "Gallatin Field Airport, United States, BZN",
        "latLong": "45.7722, -111.157"
    },
    {
        "name": "Bolzano Airport, Italy, BZO",
        "latLong": "46.4621, 11.3282"
    },
    {
        "name": "Vias Airport, France, BZR",
        "latLong": "43.3229, 3.35466"
    },
    {
        "name": "Brazzaville Maya Maya Airport, Congo, BZV",
        "latLong": "-4.2558, 15.2497"
    },
    {
        "name": "Cabinda Airport, Angola, CAB",
        "latLong": "-5.59, 12.1886"
    },
    {
        "name": "Cascavel Airport, Brazil, CAC",
        "latLong": "-25.0017, -53.5014"
    },
    {
        "name": "Columbia Metropolitan Airport, United States, CAE",
        "latLong": "33.9468, -81.1241"
    },
    {
        "name": "Elmas Airport, Italy, CAG",
        "latLong": "39.2527, 9.05813"
    },
    {
        "name": "Camo, Vietnam, CAH",
        "latLong": "9.17667, 105.151"
    },
    {
        "name": "Cairo Intl. Airport, Egypt, CAI",
        "latLong": "30.1206, 31.4078"
    },
    {
        "name": "Akron Canton Regional Airport, United States, CAK",
        "latLong": "40.9149, -81.4309"
    },
    {
        "name": "Campbeltown Airport, United Kingdom, CAL",
        "latLong": "55.4388, -5.69997"
    },
    {
        "name": "Baiyun Airport, China, CAN",
        "latLong": "23.3925, 113.299"
    },
    {
        "name": "Cap Haitien Airport, Haiti, CAP",
        "latLong": "19.7328, -72.195"
    },
    {
        "name": "Carlisle Airport, United Kingdom, CAX",
        "latLong": "54.9375, -2.8106"
    },
    {
        "name": "Rochambeau, French Guiana, CAY",
        "latLong": "4.93333, -52.3333"
    },
    {
        "name": "Cobar Airport, Australia, CAZ",
        "latLong": "-31.5334, 145.797"
    },
    {
        "name": "Jorge Wilsterman Airport, Bolivia, CBB",
        "latLong": "-17.4161, -66.1744"
    },
    {
        "name": "Cambridge Airport, United Kingdom, CBG",
        "latLong": "52.2069, 0.17355"
    },
    {
        "name": "Bechar Airport, Algeria, CBH",
        "latLong": "31.6583, -2.2614"
    },
    {
        "name": "Cotabato Airport, Philippines, CBO",
        "latLong": "7.165, 124.208"
    },
    {
        "name": "Calabar Airport, Nigeria, CBQ",
        "latLong": "4.9756, 8.3481"
    },
    {
        "name": "Canberra Intl. Airport, Australia, CBR",
        "latLong": "-35.3069, 149.195"
    },
    {
        "name": "Angola, Angola, CBT",
        "latLong": "-12.4827, 13.4904"
    },
    {
        "name": "Cuba, Cuba, CCC",
        "latLong": "22.4817, -78.4813"
    },
    {
        "name": "Kozhikode Airport, India, CCJ",
        "latLong": "11.1329, 75.9536"
    },
    {
        "name": "Cocos Airport, Cocos, Keeling Islands, CCK",
        "latLong": "-12.1778, 96.839"
    },
    {
        "name": "Criciuma Airport, Brazil, CCM",
        "latLong": "-28.7239, -49.4208"
    },
    {
        "name": "Carriel Sur Intl. Airport, Chile, CCP",
        "latLong": "-36.7736, -73.06"
    },
    {
        "name": "Simon Bolivar Intl. Airport, Venezuela, CCS",
        "latLong": "10.6053, -66.9881"
    },
    {
        "name": "Netaji Subhash Chandra Bose Intl. Airport, India, CCU",
        "latLong": "22.6572, 88.4506"
    },
    {
        "name": "Vanuatu, Vanuatu, CCV",
        "latLong": "-16.6619, 168.38"
    },
    {
        "name": "Chub Cay Airport, Bahamas, CCZ",
        "latLong": "25.4098, -77.8843"
    },
    {
        "name": "Cold Bay Airport, United States, CDB",
        "latLong": "55.2005, -162.705"
    },
    {
        "name": "Cedar City Municipal Airport, United States, CDC",
        "latLong": "37.6992, -113.092"
    },
    {
        "name": "Charles de Gaulle Intl. Airport, France, CDG",
        "latLong": "49.0175, 2.5564"
    },
    {
        "name": "Chadron Municipal Airport, United States, CDR",
        "latLong": "42.8284, -103.094"
    },
    {
        "name": "Merle K Mudhole Smith Airport, United States, CDV",
        "latLong": "60.4924, -145.475"
    },
    {
        "name": "Lahug Airport, Philippines, CEB",
        "latLong": "10.3596, 123.837"
    },
    {
        "name": "Jack Mcnamara Field Airport, United States, CEC",
        "latLong": "41.7765, -124.237"
    },
    {
        "name": "Ceduna Airport, Australia, CED",
        "latLong": "-32.1264, 133.701"
    },
    {
        "name": "Cherepovets Airport, Russia, CEE",
        "latLong": "59.083, 37.938"
    },
    {
        "name": "Hawarden Airport, United Kingdom, CEG",
        "latLong": "53.1707, -2.98142"
    },
    {
        "name": "Chiang Rai Airport, Thailand, CEI",
        "latLong": "19.8864, 99.8306"
    },
    {
        "name": "Chelyabinsk Balandino Airport, Russia, CEK",
        "latLong": "55.3104, 61.4913"
    },
    {
        "name": "Central Airport, United States, CEM",
        "latLong": "65.6121, -144.674"
    },
    {
        "name": "Ciudad Obregon Airport, Mexico, CEN",
        "latLong": "27.3925, -109.832"
    },
    {
        "name": "Cortez-Montezuma County Airport, United States, CEZ",
        "latLong": "37.3044, -108.63"
    },
    {
        "name": "Cacador Airport, Brazil, CFC",
        "latLong": "-26.7775, -51.0175"
    },
    {
        "name": "Aulnat Airport, France, CFE",
        "latLong": "45.7896, 3.16013"
    },
    {
        "name": "Abou Bakr Belkaid, Algeria, CFK",
        "latLong": "36.2128, 1.33167"
    },
    {
        "name": "Carrickfin Airport, Ireland, CFN",
        "latLong": "55.0416, -8.3436"
    },
    {
        "name": "Carpiquet Airport, France, CFR",
        "latLong": "49.1825, -0.45906"
    },
    {
        "name": "Coffs Harbour Airport, Australia, CFS",
        "latLong": "-30.3171, 153.119"
    },
    {
        "name": "Kerkira Airport, Greece, CFU",
        "latLong": "39.6013, 19.9136"
    },
    {
        "name": "Craig Seaplane Base, United States, CGA",
        "latLong": "55.4592, -133.106"
    },
    {
        "name": "Marechal Rondon Intl. Airport, Brazil, CGB",
        "latLong": "-15.6497, -56.1169"
    },
    {
        "name": "Changde Airport, China, CGD",
        "latLong": "28.9196, 111.63"
    },
    {
        "name": "Congonhas Intl. Airport, Brazil, CGH",
        "latLong": "-23.6285, -46.6589"
    },
    {
        "name": "Cape Girardeau Municipal Airport, United States, CGI",
        "latLong": "37.2272, -89.5637"
    },
    {
        "name": "Jakarta Intl. Airport, Indonesia, CGK",
        "latLong": "-6.11964, 106.656"
    },
    {
        "name": "Philippines, Philippines, CGM",
        "latLong": "9.173, 124.725"
    },
    {
        "name": "Cologne Bonn Airport, Germany, CGN",
        "latLong": "50.8784, 7.12293"
    },
    {
        "name": "Zhengzhou Airport, China, CGO",
        "latLong": "34.75, 113.65"
    },
    {
        "name": "Chittagong Airport, Bangladesh, CGP",
        "latLong": "22.2517, 91.815"
    },
    {
        "name": "Dafang Shen Airport, China, CGQ",
        "latLong": "43.9069, 125.207"
    },
    {
        "name": "Campo Grande Intl. Airport, Brazil, CGR",
        "latLong": "-20.475, -54.6736"
    },
    {
        "name": "Cagayan de Oro Airport, Philippines, CGY",
        "latLong": "8.4139, 124.608"
    },
    {
        "name": "Chattanooga Metropolitan Airport, United States, CHA",
        "latLong": "35.0373, -85.1966"
    },
    {
        "name": "Christchurch Intl. Airport, New Zealand, CHC",
        "latLong": "-43.4859, 172.534"
    },
    {
        "name": "Charlottesville Albemarle Airport, United States, CHO",
        "latLong": "38.14, -78.4487"
    },
    {
        "name": "Souda Airport, Greece, CHQ",
        "latLong": "35.5319, 24.1489"
    },
    {
        "name": "Karewa, New Zealand, CHT",
        "latLong": "-37.9723, 174.566"
    },
    {
        "name": "Chuathbaluk, United States, CHU",
        "latLong": "61.5769, -159.244"
    },
    {
        "name": "Choiseul Bay, Solomon Islands, CHY",
        "latLong": "-6.7, 156.45"
    },
    {
        "name": "Ciampino Airport, Italy, CIA",
        "latLong": "41.8004, 12.5908"
    },
    {
        "name": "Chico Municipal Airport, United States, CIC",
        "latLong": "39.7987, -121.854"
    },
    {
        "name": "Cedar Rapids Municipal Airport, United States, CID",
        "latLong": "41.8893, -91.7008"
    },
    {
        "name": "Chifeng, China, CIF",
        "latLong": "42.3333, 119.008"
    },
    {
        "name": "Changzhi, China, CIH",
        "latLong": "36.1833, 113.133"
    },
    {
        "name": "E. Beltram Airport, Bolivia, CIJ",
        "latLong": "-11.0178, -68.759"
    },
    {
        "name": "Chalkyitsik Airport, United States, CIK",
        "latLong": "66.65, -143.75"
    },
    {
        "name": "Unknown, Zambia, CIP",
        "latLong": "-11.1358, -38.5205"
    },
    {
        "name": "Unknown, Kazakhstan, CIT",
        "latLong": "39.89, -78.0166"
    },
    {
        "name": "Chippewa County Intl. Airport, United States, CIU",
        "latLong": "46.2581, -84.4739"
    },
    {
        "name": "Canouan Airport, Saint Vincent and the Grenadines, CIW",
        "latLong": "12.7187, -61.3306"
    },
    {
        "name": "Cap J A Quinones Gonzales Airport, Peru, CIX",
        "latLong": "-6.7897, -79.8322"
    },
    {
        "name": "Maj Gen Fap A R Iglesias Airport, Peru, CJA",
        "latLong": "-7.1322, -78.4889"
    },
    {
        "name": "Peelamedu Airport, India, CJB",
        "latLong": "11.0233, 77.0482"
    },
    {
        "name": "El Loa Airport, Chile, CJC",
        "latLong": "-22.4944, -68.9017"
    },
    {
        "name": "Chitral Airport, Pakistan, CJL",
        "latLong": "35.8861, 71.7944"
    },
    {
        "name": "Ciudad Juarez Intl. Airport, Mexico, CJS",
        "latLong": "31.6361, -106.428"
    },
    {
        "name": "Cheju Intl. Airport, South Korea, CJU",
        "latLong": "33.5056, 126.495"
    },
    {
        "name": "Benedum Airport, United States, CKB",
        "latLong": "39.2967, -80.2314"
    },
    {
        "name": "Crooked Creek Airport, United States, CKD",
        "latLong": "61.8667, -158.133"
    },
    {
        "name": "Chongqing Jiangbei Intl., China, CKG",
        "latLong": "29.5833, 106.5"
    },
    {
        "name": "Carajas Airport, Brazil, CKS",
        "latLong": "-6.1175, -50.0036"
    },
    {
        "name": "Chicken Airport, United States, CKX",
        "latLong": "64.0833, -141.917"
    },
    {
        "name": "Conakry Airport, Guinea, CKY",
        "latLong": "9.5764, -13.6108"
    },
    {
        "name": "Abydus, Turkey, CKZ",
        "latLong": "40.1553, 26.4142"
    },
    {
        "name": "Mcclellan Palomar Airport, United States, CLD",
        "latLong": "33.1255, -117.275"
    },
    {
        "name": "Hopkins Intl. Airport, United States, CLE",
        "latLong": "41.4115, -81.8339"
    },
    {
        "name": "Someseni Airport, Romania, CLJ",
        "latLong": "46.7902, 23.6984"
    },
    {
        "name": "Easterwood Field Airport, United States, CLL",
        "latLong": "30.5938, -96.3685"
    },
    {
        "name": "William R Fairchild Intl. Airport, United States, CLM",
        "latLong": "48.1155, -123.491"
    },
    {
        "name": "Alfonso Bonilla Aragon Intl. Airport, Colombia, CLO",
        "latLong": "3.5461, -76.385"
    },
    {
        "name": "Clarks Point Airport, United States, CLP",
        "latLong": "58.8517, -158.51"
    },
    {
        "name": "Colima Airport, Mexico, CLQ",
        "latLong": "19.2733, -103.577"
    },
    {
        "name": "Douglas Intl. Airport, United States, CLT",
        "latLong": "35.2226, -80.946"
    },
    {
        "name": "Ste Catherine Airport, France, CLY",
        "latLong": "42.5295, 8.79677"
    },
    {
        "name": "Cunnamulla, Australia, CMA",
        "latLong": "-28.0333, 145.617"
    },
    {
        "name": "Katunayake Intl. Airport, Sri Lanka, CMB",
        "latLong": "7.1806, 79.8856"
    },
    {
        "name": "Ciudad del Carmen Airport, Mexico, CME",
        "latLong": "18.6522, -91.8011"
    },
    {
        "name": "Aix les Bains Airport, France, CMF",
        "latLong": "45.6375, 5.88291"
    },
    {
        "name": "Corumba Intl. Airport, Brazil, CMG",
        "latLong": "-19.0055, -57.7055"
    },
    {
        "name": "Port Columbus Intl. Airport, United States, CMH",
        "latLong": "39.9974, -82.8877"
    },
    {
        "name": "University of Illinois-Willard Airport, United States, CMI",
        "latLong": "40.0367, -88.2638"
    },
    {
        "name": "Mohamed V Airport, Morocco, CMN",
        "latLong": "33.365, -7.5817"
    },
    {
        "name": "Chimbu Airport, Papua New Guinea, CMU",
        "latLong": "-6.0283, 44.9717"
    },
    {
        "name": "Ignacio Agramonte Airport, Cuba, CMW",
        "latLong": "21.4186, -77.8458"
    },
    {
        "name": "Houghton County Memorial Airport, United States, CMX",
        "latLong": "47.1689, -88.4942"
    },
    {
        "name": "Coonamble Airport, Australia, CNB",
        "latLong": "-30.9742, 148.381"
    },
    {
        "name": "Australia, Australia, CNC",
        "latLong": "-10.0505, 143.069"
    },
    {
        "name": "Constanta Mihail Kogalniceanu Airport, Romania, CND",
        "latLong": "44.3581, 28.4896"
    },
    {
        "name": "Tancredo Neves Intl. Airport, Brazil, CNF",
        "latLong": "-19.6242, -43.9717"
    },
    {
        "name": "Cloncurry Aerodrome, Australia, CNJ",
        "latLong": "-20.6657, 140.508"
    },
    {
        "name": "Cavern City Air Terminal Airport, United States, CNM",
        "latLong": "32.3458, -104.251"
    },
    {
        "name": "Neerlerit Inaat, Greenland, CNP",
        "latLong": "70.7431, -22.6583"
    },
    {
        "name": "Corrientes Airport, Argentina, CNQ",
        "latLong": "-27.4497, -58.7622"
    },
    {
        "name": "Cairns Intl. Airport, Australia, CNS",
        "latLong": "-16.8831, 145.753"
    },
    {
        "name": "Chiang Mai Intl. Airport, Thailand, CNX",
        "latLong": "18.7714, 98.9628"
    },
    {
        "name": "Canyonlands Field Airport, United States, CNY",
        "latLong": "38.7609, -109.742"
    },
    {
        "name": "Yellowstone Regional Airport, United States, COD",
        "latLong": "44.5134, -109.031"
    },
    {
        "name": "Kochi Airport, India, COK",
        "latLong": "9.93997, 76.2748"
    },
    {
        "name": "Coll Island Airport, United Kingdom, COL",
        "latLong": "56.6167, -6.61667"
    },
    {
        "name": "Cotonou Cadjehon Airport, Benin, COO",
        "latLong": "6.3542, 2.3856"
    },
    {
        "name": "Choybalsan Northeast Airport, Mongolia, COQ",
        "latLong": "48.1366, 114.65"
    },
    {
        "name": "Ingeniero Ambrosio L.V. Taravella Intl. , Argentina, COR",
        "latLong": "-31.3131, -64.1994"
    },
    {
        "name": "City of Colorado Springs Municipal Airport, United States, COS",
        "latLong": "38.7829, -104.697"
    },
    {
        "name": "Columbia Regional Airport, United States, COU",
        "latLong": "38.8174, -92.2218"
    },
    {
        "name": "Chapelco Airport, Argentina, CPC",
        "latLong": "-40.0758, -71.1392"
    },
    {
        "name": "Coober Pedy Aerodrome, Australia, CPD",
        "latLong": "-29.0378, 134.724"
    },
    {
        "name": "Ignacio Alberto Acuna Ongay Airport, Mexico, CPE",
        "latLong": "19.8158, -90.5008"
    },
    {
        "name": "Copenhagen Airport, Denmark, CPH",
        "latLong": "55.6205, 12.6495"
    },
    {
        "name": "Chamonate Airport, Chile, CPO",
        "latLong": "-27.2933, -70.4122"
    },
    {
        "name": "Campinas Intl. Airport, Brazil, CPQ",
        "latLong": "-23, -47.1333"
    },
    {
        "name": "Natrona County Intl. Airport, United States, CPR",
        "latLong": "42.8966, -106.465"
    },
    {
        "name": "D F Malan Airport, South Africa, CPT",
        "latLong": "-33.9647, 18.6022"
    },
    {
        "name": "Presidente Joao Suassuna Airport, Brazil, CPV",
        "latLong": "-7.2689, -35.8947"
    },
    {
        "name": "Culebra Airport, United States, CPX",
        "latLong": "18.3204, -65.2929"
    },
    {
        "name": "Shahre-Kord, Iran, CQD",
        "latLong": "32.2967, 50.8417"
    },
    {
        "name": "Craiova Airport, Romania, CRA",
        "latLong": "44.3173, 23.8447"
    },
    {
        "name": "General Enrique Mosconi Airport, Argentina, CRD",
        "latLong": "-45.7872, -67.4628"
    },
    {
        "name": "Colonel Hill Airport, Bahamas, CRI",
        "latLong": "22.7467, -74.18"
    },
    {
        "name": "Catarman Airport, Philippines, CRM",
        "latLong": "12.5044, 124.635"
    },
    {
        "name": "Corpus Christi Intl. Airport, United States, CRP",
        "latLong": "27.7747, -97.5019"
    },
    {
        "name": "Yeager Airport, United States, CRW",
        "latLong": "38.3697, -81.5951"
    },
    {
        "name": "Isle Of Colonsay, United Kingdom, CSA",
        "latLong": "56.0603, -6.22418"
    },
    {
        "name": "Columbus Metropolitan Airport, United States, CSG",
        "latLong": "32.5184, -84.9401"
    },
    {
        "name": "Solovky, Russian Federation, CSH",
        "latLong": "65.05, 35.6667"
    },
    {
        "name": "Cap Skiring Airport, Senegal, CSK",
        "latLong": "12.3953, -16.7514"
    },
    {
        "name": "Huanghua Airport, China, CSX",
        "latLong": "28.0711, 112.958"
    },
    {
        "name": "Catania Fontanarossa Airport, Italy, CTA",
        "latLong": "37.4696, 15.0672"
    },
    {
        "name": "Catamarca Airport, Argentina, CTC",
        "latLong": "-28.5939, -65.7542"
    },
    {
        "name": "Rafael Nunez Airport, Colombia, CTG",
        "latLong": "10.4481, -75.5106"
    },
    {
        "name": "Charleville Aerodrome, Australia, CTL",
        "latLong": "-26.4135, 146.263"
    },
    {
        "name": "Chetumal Intl. Airport, Mexico, CTM",
        "latLong": "18.5039, -88.3247"
    },
    {
        "name": "New Chitose Airport, Japan, CTS",
        "latLong": "42.7757, 141.691"
    },
    {
        "name": "Chengdushuang Liu Airport, China, CTU",
        "latLong": "30.5775, 103.941"
    },
    {
        "name": "Camilo Daza Airport, Colombia, CUC",
        "latLong": "7.93, -72.5094"
    },
    {
        "name": "Mariscal Lamar Airport, Ecuador, CUE",
        "latLong": "-2.8867, -78.9833"
    },
    {
        "name": "Levaldigi Airport, Italy, CUF",
        "latLong": "44.5466, 7.61998"
    },
    {
        "name": "Belize, Belize, CUK",
        "latLong": "17.4956, -88.1816"
    },
    {
        "name": "Culiacan Airport, Mexico, CUL",
        "latLong": "24.7644, -107.474"
    },
    {
        "name": "Antonio Jose de Sucre Airport, Venezuela, CUM",
        "latLong": "10.4539, -64.1297"
    },
    {
        "name": "Cancun Airport, Mexico, CUN",
        "latLong": "21.0406, -86.8744"
    },
    {
        "name": "Gen Jose Francisco Bermudez Airport, Venezuela, CUP",
        "latLong": "10.6589, -63.2625"
    },
    {
        "name": "Hato Airport, Netherlands Antilles, CUR",
        "latLong": "12.188, -68.9634"
    },
    {
        "name": "General R F Villalobos Intl. Airport, Mexico, CUU",
        "latLong": "28.7028, -105.964"
    },
    {
        "name": "Velazco Astete Airport, Peru, CUZ",
        "latLong": "-13.5308, -71.9472"
    },
    {
        "name": "Greater Cincinnati Intl. Airport, United States, CVG",
        "latLong": "39.0571, -84.6625"
    },
    {
        "name": "Ciudad Victoria Airport, Mexico, CVM",
        "latLong": "23.7139, -98.9653"
    },
    {
        "name": "Clovis Municipal Airport, United States, CVN",
        "latLong": "34.4271, -103.087"
    },
    {
        "name": "Carnarvon Airport, Australia, CVQ",
        "latLong": "-24.8801, 113.669"
    },
    {
        "name": "Coventry Airport, United Kingdom, CVT",
        "latLong": "52.367, -1.4895"
    },
    {
        "name": "Corvo Island Airport, Portugal, CVU",
        "latLong": "39.7, -31.1"
    },
    {
        "name": "Central Wisconsin Airport, United States, CWA",
        "latLong": "44.7846, -89.6704"
    },
    {
        "name": "Afonso Pena Intl. Airport, Brazil, CWB",
        "latLong": "-25.5275, -49.1731"
    },
    {
        "name": "Chernovtsy Airport, Ukraine, CWC",
        "latLong": "48.2526, 25.976"
    },
    {
        "name": "Cardiff Intl. Airport, United Kingdom, CWL",
        "latLong": "51.3998, -3.34475"
    },
    {
        "name": "Coxs Bazar Airport, Bangladesh, CXB",
        "latLong": "21.45, 91.9681"
    },
    {
        "name": "Coal Harbour Airport, Canada, CXH",
        "latLong": "49.5912, -125.848"
    },
    {
        "name": "Christmas Island Airport, Kiribati, CXI",
        "latLong": "1.9849, -157.675"
    },
    {
        "name": "Campo dos Bugres Airport, Brazil, CXJ",
        "latLong": "-29.1961, -51.1906"
    },
    {
        "name": "Nha-Trang Airport, Vietnam, CXR",
        "latLong": "12.2333, 109.2"
    },
    {
        "name": "Gerrard Smith Airport, Cayman Islands, CYB",
        "latLong": "19.689, -79.8848"
    },
    {
        "name": "Chaiyi Airport, Taiwan, CYI",
        "latLong": "23.4542, 120.404"
    },
    {
        "name": "Cayo Largo del sur Airport, Cuba, CYO",
        "latLong": "21.6169, -81.5422"
    },
    {
        "name": "Calbayog Airport, Philippines, CYP",
        "latLong": "12.0722, 124.544"
    },
    {
        "name": "Cheyenne Airport, United States, CYS",
        "latLong": "41.1527, -104.819"
    },
    {
        "name": "Cuyo, Philippines, CYU",
        "latLong": "10.8762, 121.064"
    },
    {
        "name": "Cherskiy, Russian Federation, CYX",
        "latLong": "68.75, 161.35"
    },
    {
        "name": "Cauayan Airport, Philippines, CYZ",
        "latLong": "16.93, 121.756"
    },
    {
        "name": "Jose Leonardo Chirinos Airport, Venezuela, CZE",
        "latLong": "11.4158, -69.6819"
    },
    {
        "name": "Corozal Airport, Belize, CZH",
        "latLong": "18.3696, -88.4307"
    },
    {
        "name": "Ain El Bey Airport, Algeria, CZL",
        "latLong": "36.2778, 6.6247"
    },
    {
        "name": "Cozumel Intl. Airport, Mexico, CZM",
        "latLong": "20.5242, -86.9264"
    },
    {
        "name": "Chisana Airport, United States, CZN",
        "latLong": "62.0833, -142.05"
    },
    {
        "name": "Cruzeiro do Sul Intl. Airport, Brazil, CZS",
        "latLong": "-7.5994, -72.7697"
    },
    {
        "name": "Las Brujas Airport, Colombia, CZU",
        "latLong": "9.3375, -75.2828"
    },
    {
        "name": "Changzhou Airport, China, CZX",
        "latLong": "31.7833, 119.95"
    },
    {
        "name": "Daytona Beach Intl. Airport, United States, DAB",
        "latLong": "29.1874, -81.0615"
    },
    {
        "name": "Zia Intl. Airport Dhaka, Bangladesh, DAC",
        "latLong": "23.8379, 90.3948"
    },
    {
        "name": "Da Nang Airport, Vietnam, DAD",
        "latLong": "16.05, 108.2"
    },
    {
        "name": "Dallas Love Field Airport, United States, DAL",
        "latLong": "32.8439, -96.8496"
    },
    {
        "name": "Damascus Intl. Airport, Syria, DAM",
        "latLong": "33.4139, 36.5178"
    },
    {
        "name": "Dar Es Salaam Airport, Tanzania, DAR",
        "latLong": "-6.8753, 39.2019"
    },
    {
        "name": "Unknown, China, DAT",
        "latLong": "45.3666, -102.682"
    },
    {
        "name": "Daru Airport, Papua New Guinea, DAU",
        "latLong": "-9.0878, 143.195"
    },
    {
        "name": "Daxian Airport, China, DAX",
        "latLong": "31.1336, 107.419"
    },
    {
        "name": "James M Cox Dayton Intl. Airport, United States, DAY",
        "latLong": "39.8968, -84.2207"
    },
    {
        "name": "Pakistan, Pakistan, DBA",
        "latLong": "30.4419, 69.3597"
    },
    {
        "name": "Dubbo Airport, Australia, DBO",
        "latLong": "-32.2183, 148.574"
    },
    {
        "name": "Dubuque Regional Airport, United States, DBQ",
        "latLong": "42.4047, -90.7037"
    },
    {
        "name": "Dubrovnik Airport, Croatia, DBV",
        "latLong": "42.5631, 18.2692"
    },
    {
        "name": "Washington National Airport, United States, DCA",
        "latLong": "38.849, -77.0438"
    },
    {
        "name": "Cane Field Airport, Dominica, DCF",
        "latLong": "15.5333, -61.4"
    },
    {
        "name": "Mazamet Airport, France, DCM",
        "latLong": "43.5538, 2.28923"
    },
    {
        "name": "Dodge City Regional Airport, United States, DDC",
        "latLong": "37.7573, -99.9697"
    },
    {
        "name": "Dandong Airport, China, DDG",
        "latLong": "40.0242, 124.283"
    },
    {
        "name": "Unknown, Pakistan, DEA",
        "latLong": "40.2483, -74.0007"
    },
    {
        "name": "Decatur Airport, United States, DEC",
        "latLong": "39.8335, -88.8773"
    },
    {
        "name": "Dehra Dun, India, DED",
        "latLong": "30.3167, 78.0333"
    },
    {
        "name": "Dezful Airport, Iran, DEF",
        "latLong": "32.4317, 48.3989"
    },
    {
        "name": "Indira Gandhi Intl. Airport, India, DEL",
        "latLong": "28.5603, 77.1027"
    },
    {
        "name": "Denver Intl. Airport, United States, DEN",
        "latLong": "39.8396, -104.672"
    },
    {
        "name": "Deir Zzor Airport, Syria, DEZ",
        "latLong": "35.2822, 40.1744"
    },
    {
        "name": "Fort Worth Intl. Airport, United States, DFW",
        "latLong": "32.9222, -97.0409"
    },
    {
        "name": "Dangriga Airport, Belize, DGA",
        "latLong": "16.9757, -88.235"
    },
    {
        "name": "Mudgee Aerodrome, Australia, DGE",
        "latLong": "-32.5613, 149.618"
    },
    {
        "name": "Durango Airport, Mexico, DGO",
        "latLong": "24.1283, -104.527"
    },
    {
        "name": "Dumaguete Airport, Philippines, DGT",
        "latLong": "9.3358, 123.301"
    },
    {
        "name": "Gaggal Airport, India, DHM",
        "latLong": "32.3, 76.2667"
    },
    {
        "name": "Dothan Airport, United States, DHN",
        "latLong": "31.3144, -85.4487"
    },
    {
        "name": "Mohanbari Airport, India, DIB",
        "latLong": "27.4839, 95.0208"
    },
    {
        "name": "Antsiranana Arrachart Airport, Madagascar, DIE",
        "latLong": "-12.3461, 49.2925"
    },
    {
        "name": "Diqing, China, DIG",
        "latLong": "26.1256, 109.308"
    },
    {
        "name": "Dickinson Municipal Airport, United States, DIK",
        "latLong": "46.8035, -102.802"
    },
    {
        "name": "Comoro, Indonesia, DIL",
        "latLong": "-8.5533, 125.526"
    },
    {
        "name": "Dien Bien, Vietnam, DIN",
        "latLong": "38.5686, -81.0596"
    },
    {
        "name": "Aba Tenna Dejazmatch Yilma Airport, Ethiopia, DIR",
        "latLong": "9.6244, 41.8536"
    },
    {
        "name": "Loubomo, Congo, DIS",
        "latLong": "-4.21667, 12.5"
    },
    {
        "name": "Diu Airport, India, DIU",
        "latLong": "20.7134, 70.9217"
    },
    {
        "name": "Diyarbakir Airport, Turkey, DIY",
        "latLong": "37.8947, 40.2019"
    },
    {
        "name": "Sultan Taha Airport, Indonesia, DJB",
        "latLong": "-1.6369, 103.639"
    },
    {
        "name": "Zarzis Airport, Tunisia, DJE",
        "latLong": "33.8764, 10.7792"
    },
    {
        "name": "Tiska Airport, Algeria, DJG",
        "latLong": "24.2625, 9.4428"
    },
    {
        "name": "Sentani Airport, Indonesia, DJJ",
        "latLong": "-2.575, 140.514"
    },
    {
        "name": "Dakar Yoff Airport, Senegal, DKR",
        "latLong": "14.7417, -17.4931"
    },
    {
        "name": "Douala Airport, Cameroon, DLA",
        "latLong": "4.0133, 9.7097"
    },
    {
        "name": "Chou Shui Tzu Airport, China, DLC",
        "latLong": "38.9617, 121.543"
    },
    {
        "name": "Dillingham Municipal Airport, United States, DLG",
        "latLong": "59.0445, -158.513"
    },
    {
        "name": "Duluth Intl. Airport, United States, DLH",
        "latLong": "46.838, -92.1781"
    },
    {
        "name": "Lien Khuong Airport, Vietnam, DLI",
        "latLong": "11.7501, 108.377"
    },
    {
        "name": "Dalaman Airport, Turkey, DLM",
        "latLong": "36.7125, 28.7922"
    },
    {
        "name": "Dali, China, DLU",
        "latLong": "25.5667, 100.233"
    },
    {
        "name": "Vanuatu, Vanuatu, DLY",
        "latLong": "-16.6619, 168.38"
    },
    {
        "name": "Dalanzadgad, Mongolia, DLZ",
        "latLong": "43.9667, 104.683"
    },
    {
        "name": "Doomadgee, Australia, DMD",
        "latLong": "-18, 138.833"
    },
    {
        "name": "Domodedovo Airport, Russia, DME",
        "latLong": "55.4025, 37.9136"
    },
    {
        "name": "Don Mueang, Thailand, DMK",
        "latLong": "13.9181, 100.59"
    },
    {
        "name": "King Fahd Intl. Airport, Saudi Arabia, DMM",
        "latLong": "26.4722, 49.8058"
    },
    {
        "name": "Dimapur Airport, India, DMU",
        "latLong": "25.8839, 93.7736"
    },
    {
        "name": "Dundee Airport, United Kingdom, DND",
        "latLong": "56.4538, -3.01347"
    },
    {
        "name": "Dunhuang, China, DNH",
        "latLong": "40.2, 94.6833"
    },
    {
        "name": "Voloskoye Airport, Ukraine, DNK",
        "latLong": "48.368, 35.0942"
    },
    {
        "name": "Pleurtuit Airport, France, DNR",
        "latLong": "48.589, -2.07757"
    },
    {
        "name": "Cardak Airport, Turkey, DNZ",
        "latLong": "37.7667, 29.1"
    },
    {
        "name": "Dongola Airport, Sudan, DOG",
        "latLong": "19.1833, 30.4833"
    },
    {
        "name": "Doha Intl. Airport, Qatar, DOH",
        "latLong": "25.2592, 51.5658"
    },
    {
        "name": "Donetsk Airport, Ukraine, DOK",
        "latLong": "48.072, 37.7426"
    },
    {
        "name": "Melville Hall Airport, Dominica, DOM",
        "latLong": "15.5431, -61.3092"
    },
    {
        "name": "Nepal, Nepal, DOP",
        "latLong": "29.217, 82.7517"
    },
    {
        "name": "Dourados Airport, Brazil, DOU",
        "latLong": "-22.1978, -54.9225"
    },
    {
        "name": "Unknown, China, DOY",
        "latLong": "40.0294, -120.107"
    },
    {
        "name": "Dipolog Airport, Philippines, DPL",
        "latLong": "8.6043, 123.348"
    },
    {
        "name": "Devonport Airport, Australia, DPO",
        "latLong": "-41.1726, 146.425"
    },
    {
        "name": "Bali Intl. Airport, Indonesia, DPS",
        "latLong": "-8.7486, 115.165"
    },
    {
        "name": "Deering Airport, United States, DRG",
        "latLong": "66.0833, -162.767"
    },
    {
        "name": "Durango la Plata County Airport, United States, DRO",
        "latLong": "37.1595, -107.751"
    },
    {
        "name": "Ottendorf Okrilla Highway Strip Airport, Germany, DRS",
        "latLong": "51.1688, 13.7899"
    },
    {
        "name": "Del Rio Intl. Airport, United States, DRT",
        "latLong": "29.3702, -100.918"
    },
    {
        "name": "Darwin Intl. Airport, Australia, DRW",
        "latLong": "-12.4159, 130.874"
    },
    {
        "name": "Sheffield Airport, United Kingdom, DSA",
        "latLong": "53.3954, -1.38243"
    },
    {
        "name": "Des Moines Intl. Airport, United States, DSM",
        "latLong": "41.5328, -93.6481"
    },
    {
        "name": "Dongsheng Airport, China, DSN",
        "latLong": "39.8295, 109.976"
    },
    {
        "name": "Dortmund Airport, Germany, DTM",
        "latLong": "51.5123, 7.60451"
    },
    {
        "name": "Detroit Metropolitan Wayne County Airport, United States, DTW",
        "latLong": "42.2327, -83.3412"
    },
    {
        "name": "Dublin Airport, Ireland, DUB",
        "latLong": "53.4272, -6.24418"
    },
    {
        "name": "Dunedin Airport, New Zealand, DUD",
        "latLong": "-45.9287, 170.199"
    },
    {
        "name": "Dundo Airport, Angola, DUE",
        "latLong": "-7.3958, 20.8236"
    },
    {
        "name": "Du Bois Jefferson County Airport, United States, DUJ",
        "latLong": "41.1833, -78.8953"
    },
    {
        "name": "Louis Botha Airport, South Africa, DUR",
        "latLong": "-29.9736, 30.9472"
    },
    {
        "name": "Dusseldorf Intl. Airport, Germany, DUS",
        "latLong": "51.2794, 6.76481"
    },
    {
        "name": "Unalaska Airport, United States, DUT",
        "latLong": "53.896, -166.535"
    },
    {
        "name": "Devils Lake Municipal Airport, United States, DVL",
        "latLong": "48.108, -98.9037"
    },
    {
        "name": "Francisco Bangoy Intl. Airport, Philippines, DVO",
        "latLong": "7.1292, 125.647"
    },
    {
        "name": "Soalala, Madagascar, DWB",
        "latLong": "-16.1, 45.3667"
    },
    {
        "name": "Saudi Arabia, Saudi Arabia, DWD",
        "latLong": "23.9176, 45.0811"
    },
    {
        "name": "Dubai Intl. Airport, United Arab Emirates, DXB",
        "latLong": "25.2509, 55.3629"
    },
    {
        "name": "Dayong, China, DYG",
        "latLong": "29.1333, 110.483"
    },
    {
        "name": "Anadyr-Ugolnyye Kopi Airport, Russia, DYR",
        "latLong": "64.7358, 177.739"
    },
    {
        "name": "Tajikistan, Tajikistan, DYU",
        "latLong": "38.5785, 68.7773"
    },
    {
        "name": "Dzaoudzi Pamanzi Airport, Mayotte, DZA",
        "latLong": "-12.8, 45.2833"
    },
    {
        "name": "Dzhezkazgan South Airport, Kazakhstan, DZN",
        "latLong": "47.7131, 67.7065"
    },
    {
        "name": "Eagle Airport, United States, EAA",
        "latLong": "64.7667, -141.15"
    },
    {
        "name": "Vanuatu, Vanuatu, EAE",
        "latLong": "-17.0686, 168.381"
    },
    {
        "name": "Elenak, Marshall Islands, EAL",
        "latLong": "9.08333, 167.333"
    },
    {
        "name": "Nejran Airport, Saudi Arabia, EAM",
        "latLong": "17.6117, 44.4297"
    },
    {
        "name": "Kearney Municipal Airport, United States, EAR",
        "latLong": "40.7236, -99.0151"
    },
    {
        "name": "San Sebastian Airport, Spain, EAS",
        "latLong": "43.3557, -1.79208"
    },
    {
        "name": "Pangborn Memorial Airport, United States, EAT",
        "latLong": "47.4048, -120.21"
    },
    {
        "name": "Eau Claire County Airport, United States, EAU",
        "latLong": "44.8625, -91.4826"
    },
    {
        "name": "Marina de Campo Airport, Italy, EBA",
        "latLong": "42.7629, 10.2383"
    },
    {
        "name": "Entebbe Intl. Airport, Uganda, EBB",
        "latLong": "0.0417, 32.4381"
    },
    {
        "name": "El Obeid Airport, Sudan, EBD",
        "latLong": "13.1597, 30.2342"
    },
    {
        "name": "Esbjerg Airport, Denmark, EBJ",
        "latLong": "55.5247, 8.55388"
    },
    {
        "name": "Erbil, Iraq, EBL",
        "latLong": "36.1797, 44.016"
    },
    {
        "name": "Ercan Airport, Cyprus, ECN",
        "latLong": "35.1597, 33.4897"
    },
    {
        "name": "Edna Bay Seaplane Base, United States, EDA",
        "latLong": "55.9503, -133.656"
    },
    {
        "name": "Edinburgh Intl. Airport, United Kingdom, EDI",
        "latLong": "55.9486, -3.36431"
    },
    {
        "name": "Eldoret Airport, Kenya, EDL",
        "latLong": "0.5375, 35.2783"
    },
    {
        "name": "Edremit-Korfez Airport, Turkey, EDO",
        "latLong": "39.599, 27.0221"
    },
    {
        "name": "Edward River, Australia, EDR",
        "latLong": "-14.9, 141.617"
    },
    {
        "name": "Eek Airport, United States, EEK",
        "latLong": "60.2167, -162.017"
    },
    {
        "name": "Kefallinia Airport, Greece, EFL",
        "latLong": "38.1181, 20.5003"
    },
    {
        "name": "Eagle County Regional Airport, United States, EGE",
        "latLong": "39.6395, -106.912"
    },
    {
        "name": "Unknown, Sudan, EGN",
        "latLong": "13.4833, 22.45"
    },
    {
        "name": "Belgorod North Airport, Russia, EGO",
        "latLong": "50.6406, 36.5853"
    },
    {
        "name": "Egilsstadir Airport, Iceland, EGS",
        "latLong": "65.2694, -14.3549"
    },
    {
        "name": "Eagle River Union Airport, United States, EGV",
        "latLong": "45.932, -89.2599"
    },
    {
        "name": "Egegik Airport, United States, EGX",
        "latLong": "58.2101, -157.366"
    },
    {
        "name": "Unknown, Norway, EIK",
        "latLong": "59.298, 10.4319"
    },
    {
        "name": "Eindhoven Airport, Netherlands, EIN",
        "latLong": "51.4463, 5.39212"
    },
    {
        "name": "Beef Island-Roadtown Airport, British Virgin Islands, EIS",
        "latLong": "18.4439, -64.5428"
    },
    {
        "name": "Yariguies Airport, Colombia, EJA",
        "latLong": "7.025, -73.8092"
    },
    {
        "name": "Wejh Airport, Saudi Arabia, EJH",
        "latLong": "26.2003, 36.4758"
    },
    {
        "name": "Elko Municipal Airport-J C Harris Field, United States, EKO",
        "latLong": "40.829, -115.78"
    },
    {
        "name": "Elcho Island Airport, Australia, ELC",
        "latLong": "-11.9149, 135.803"
    },
    {
        "name": "Unknown, Sudan, ELF",
        "latLong": "35.0339, -83.7405"
    },
    {
        "name": "El Golea Airport, Algeria, ELG",
        "latLong": "30.5686, 2.8653"
    },
    {
        "name": "North Eleuthera Airport, Bahamas, ELH",
        "latLong": "25.4747, -76.685"
    },
    {
        "name": "Elim Airport, United States, ELI",
        "latLong": "64.6167, -162.267"
    },
    {
        "name": "Elmira Corning Regional Airport, United States, ELM",
        "latLong": "42.1633, -76.8973"
    },
    {
        "name": "El Paso Intl. Airport, United States, ELP",
        "latLong": "31.7982, -106.393"
    },
    {
        "name": "Gassim Airport, Saudi Arabia, ELQ",
        "latLong": "26.3025, 43.7703"
    },
    {
        "name": "Ben Schoeman Airport, South Africa, ELS",
        "latLong": "-33.0361, 27.8239"
    },
    {
        "name": "Guemar Airport, Algeria, ELU",
        "latLong": "33.5122, 6.7842"
    },
    {
        "name": "Yelland Field Airport, United States, ELY",
        "latLong": "39.3043, -114.853"
    },
    {
        "name": "East Midlands Intl. Airport, United Kingdom, EMA",
        "latLong": "52.8258, -1.33094"
    },
    {
        "name": "Emerald Aerodrome, Australia, EMD",
        "latLong": "-23.5704, 148.178"
    },
    {
        "name": "Emden Airport, Germany, EME",
        "latLong": "53.3893, 7.2284"
    },
    {
        "name": "Emmonak Airport, United States, EMK",
        "latLong": "62.785, -164.491"
    },
    {
        "name": "Kenai Municipal Airport, United States, ENA",
        "latLong": "60.5651, -151.244"
    },
    {
        "name": "Ende Airport, Indonesia, ENE",
        "latLong": "-8.8, 121.6"
    },
    {
        "name": "Enontekio Airport, Finland, ENF",
        "latLong": "68.3606, 23.4205"
    },
    {
        "name": "Enshi Airport, China, ENH",
        "latLong": "30.2875, 109.472"
    },
    {
        "name": "Unknown, Philippines, ENI",
        "latLong": "34.1167, -89.9395"
    },
    {
        "name": "Enugu Airport, Nigeria, ENU",
        "latLong": "6.4756, 7.5661"
    },
    {
        "name": "Kenosha Regional Airport, United States, ENW",
        "latLong": "42.5934, -87.9299"
    },
    {
        "name": "Yan'an, China, ENY",
        "latLong": "36.5965, 109.475"
    },
    {
        "name": "Olaya Herrera Airport, Colombia, EOH",
        "latLong": "6.2231, -75.5886"
    },
    {
        "name": "Elorza Airport, Venezuela, EOZ",
        "latLong": "7.0631, -69.4942"
    },
    {
        "name": "Esperance Aerodrome, Australia, EPR",
        "latLong": "-33.6819, 121.827"
    },
    {
        "name": "Esquel Airport, Argentina, EQS",
        "latLong": "-42.9264, -71.1425"
    },
    {
        "name": "Erzincan Airport, Turkey, ERC",
        "latLong": "39.7117, 39.5169"
    },
    {
        "name": "Erfurt Airport, Germany, ERF",
        "latLong": "50.9754, 10.9626"
    },
    {
        "name": "Er Rachidia Airport, Morocco, ERH",
        "latLong": "31.9525, -4.4067"
    },
    {
        "name": "Erie Intl. Airport, United States, ERI",
        "latLong": "42.0829, -80.1824"
    },
    {
        "name": "Comandante Kraemer Airport, Brazil, ERM",
        "latLong": "-27.6608, -52.2756"
    },
    {
        "name": "Eros Airport, Namibia, ERS",
        "latLong": "-22.6125, 17.0819"
    },
    {
        "name": "Erzurum Airport, Turkey, ERZ",
        "latLong": "39.9567, 41.1697"
    },
    {
        "name": "Esenboga Airport, Turkey, ESB",
        "latLong": "40.1289, 32.9961"
    },
    {
        "name": "Delta County Airport, United States, ESC",
        "latLong": "45.718, -87.0942"
    },
    {
        "name": "Orcas Island Airport, United States, ESD",
        "latLong": "48.7073, -122.909"
    },
    {
        "name": "General Rivadeneira Airport, Ecuador, ESM",
        "latLong": "0.9717, -79.6219"
    },
    {
        "name": "El Salvador Bajo Airport, Chile, ESR",
        "latLong": "-26.3083, -69.7517"
    },
    {
        "name": "Essen-Mulheim Airport, Germany, ESS",
        "latLong": "51.4078, 6.93968"
    },
    {
        "name": "Morocco, Morocco, ESU",
        "latLong": "31.5147, -9.76532"
    },
    {
        "name": "J Hozman Airport, Israel, ETH",
        "latLong": "29.5541, 34.9554"
    },
    {
        "name": "Lorraine Airport, France, ETZ",
        "latLong": "48.9788, 6.24722"
    },
    {
        "name": "Eua Island, Tonga, EUA",
        "latLong": "45.9034, -116.982"
    },
    {
        "name": "Mahlon Sweet Field Airport, United States, EUG",
        "latLong": "44.1184, -123.213"
    },
    {
        "name": "Wasbek Airport, Germany, EUM",
        "latLong": "54.1667, 9.98333"
    },
    {
        "name": "Hassan I, Morocco, EUN",
        "latLong": "27.15, -13.2"
    },
    {
        "name": "St. Eustatius Airport, Netherlands Antilles, EUX",
        "latLong": "17.5031, -62.9736"
    },
    {
        "name": "Evenes Airport, Norway, EVE",
        "latLong": "68.489, 16.6806"
    },
    {
        "name": "Sveg Airport, Sweden, EVG",
        "latLong": "62.0466, 14.4187"
    },
    {
        "name": "Yerevan-Parakar Airport, Armenia, EVN",
        "latLong": "40.1573, 44.4065"
    },
    {
        "name": "Evansville Regional Airport, United States, EVV",
        "latLong": "38.0464, -87.5308"
    },
    {
        "name": "New Bedford Municipal Airport, United States, EWB",
        "latLong": "41.6735, -70.9579"
    },
    {
        "name": "Wildman Lake, United States, EWD",
        "latLong": "61.1021, -149.924"
    },
    {
        "name": "Craven County Regional Airport, United States, EWN",
        "latLong": "35.0786, -77.0343"
    },
    {
        "name": "Newark Intl. Airport, United States, EWR",
        "latLong": "40.6924, -74.1843"
    },
    {
        "name": "Exeter Airport, United Kingdom, EXT",
        "latLong": "50.7303, -3.4166"
    },
    {
        "name": "El Yopal Airport, Colombia, EYP",
        "latLong": "5.35, -72.3833"
    },
    {
        "name": "Key West Intl. Airport, United States, EYW",
        "latLong": "24.5536, -81.7551"
    },
    {
        "name": "Ministro Pistarini Intl. Airport, Argentina, EZE",
        "latLong": "-34.82, -58.5333"
    },
    {
        "name": "Elazig Airport, Turkey, EZS",
        "latLong": "38.6083, 39.2917"
    },
    {
        "name": "Farnborough Airport, United Kingdom, FAB",
        "latLong": "51.2783, -0.7703"
    },
    {
        "name": "Vagar Airport, Faroe Islands, FAE",
        "latLong": "62.0625, -7.2708"
    },
    {
        "name": "Fairbanks Intl. Airport, United States, FAI",
        "latLong": "64.8183, -147.866"
    },
    {
        "name": "Faro Airport, Portugal, FAO",
        "latLong": "37.0154, -7.97197"
    },
    {
        "name": "Hector Intl. Airport, United States, FAR",
        "latLong": "46.9195, -96.8243"
    },
    {
        "name": "Fresno Yosemite Intl. Airport, United States, FAT",
        "latLong": "36.7675, -119.717"
    },
    {
        "name": "French Polynesia, French Polynesia, FAV",
        "latLong": "-15.9969, -145.509"
    },
    {
        "name": "Fayetteville Regional Airport, United States, FAY",
        "latLong": "34.9914, -78.8889"
    },
    {
        "name": "Lubumbashi Luano Intl. Airport, Congo, FBM",
        "latLong": "-11.5908, 27.5292"
    },
    {
        "name": "Glacier Park Intl. Airport, United States, FCA",
        "latLong": "48.3075, -114.252"
    },
    {
        "name": "Nordholz, Germany, FCN",
        "latLong": "53.7849, 8.59625"
    },
    {
        "name": "Leonardo da Vinci Intl. Airport, Italy, FCO",
        "latLong": "41.8026, 12.2551"
    },
    {
        "name": "Bringeland Airport, Norway, FDE",
        "latLong": "61.392, 5.7615"
    },
    {
        "name": "Le Lamentin Airport, Martinique, FDF",
        "latLong": "14.5897, -61.0092"
    },
    {
        "name": "Friedrichshafen Airport, Germany, FDH",
        "latLong": "47.6747, 9.52088"
    },
    {
        "name": "Fergana, Uzbekistan, FEG",
        "latLong": "40.3833, 71.7667"
    },
    {
        "name": "Fernando de Noronha Airport, Brazil, FEN",
        "latLong": "-3.8519, -32.4244"
    },
    {
        "name": "Saiss Airport, Morocco, FEZ",
        "latLong": "33.9286, -4.9767"
    },
    {
        "name": "French Polynesia, French Polynesia, FGU",
        "latLong": "-15.9038, -140.494"
    },
    {
        "name": "French Polynesia, French Polynesia, FHZ",
        "latLong": "-8.64687, -131.787"
    },
    {
        "name": "Kinshasa N Djili Intl. Airport, Democratic Republic of Congo, FIH",
        "latLong": "-4.3847, 15.445"
    },
    {
        "name": "Fujairah Airport, United Arab Emirates, FJR",
        "latLong": "25.1106, 56.3267"
    },
    {
        "name": "Baden-Airpark, Germany, FKB",
        "latLong": "48.781, 8.08678"
    },
    {
        "name": "Kisangani Bangoka Intl. Airport, Congo, FKI",
        "latLong": "0.4808, 25.3331"
    },
    {
        "name": "Chess Lamberton Airport, United States, FKL",
        "latLong": "41.3766, -79.8573"
    },
    {
        "name": "Indonesia, Indonesia, FKQ",
        "latLong": "-2.46456, 117.996"
    },
    {
        "name": "Fukushima Airport, Japan, FKS",
        "latLong": "37.2314, 140.429"
    },
    {
        "name": "Gustavo Artunduaga Paredes Airport, Colombia, FLA",
        "latLong": "1.5847, -75.5644"
    },
    {
        "name": "Flagstaff Pulliam Airport, United States, FLG",
        "latLong": "35.139, -111.675"
    },
    {
        "name": "Fort Lauderdale Hollywood Intl. Airport, United States, FLL",
        "latLong": "26.0722, -80.1354"
    },
    {
        "name": "Hercilio Luz Intl. Airport, Brazil, FLN",
        "latLong": "-27.6697, -48.5517"
    },
    {
        "name": "Florence Regional Airport, United States, FLO",
        "latLong": "34.1936, -79.7289"
    },
    {
        "name": "Florence Airport, Italy, FLR",
        "latLong": "43.8097, 11.2003"
    },
    {
        "name": "Flores Airport, Portugal, FLW",
        "latLong": "39.4569, -31.1272"
    },
    {
        "name": "Formosa Airport, Argentina, FMA",
        "latLong": "-26.21, -58.235"
    },
    {
        "name": "Memmingen-Allg\u00e4u Airport, Germany, FMM",
        "latLong": "20.499, 103.75"
    },
    {
        "name": "Four Corners Regional Airport, United States, FMN",
        "latLong": "36.7387, -108.227"
    },
    {
        "name": "Munster-Osnabruck Intl. Airport, Germany, FMO",
        "latLong": "52.1312, 7.69163"
    },
    {
        "name": "Page Field Airport, United States, FMY",
        "latLong": "26.5815, -81.862"
    },
    {
        "name": "Freetown Lungi Airport, Sierra Leone, FNA",
        "latLong": "8.6181, -13.1994"
    },
    {
        "name": "Funchal Airport, Portugal, FNC",
        "latLong": "32.6919, -16.7768"
    },
    {
        "name": "Garons Airport, France, FNI",
        "latLong": "43.7618, 4.42092"
    },
    {
        "name": "Sunan Airport, North Korea, FNJ",
        "latLong": "39.1437, 125.695"
    },
    {
        "name": "Bishop Intl. Airport, United States, FNT",
        "latLong": "42.9756, -83.7411"
    },
    {
        "name": "Fuzhou Airport, China, FOC",
        "latLong": "26.0833, 119.283"
    },
    {
        "name": "Fort Dodge Regional Airport, United States, FOD",
        "latLong": "42.5523, -94.1819"
    },
    {
        "name": "Gino Lisa Airport, Italy, FOG",
        "latLong": "41.4341, 15.5438"
    },
    {
        "name": "Pinto Martins Intl. Airport, Brazil, FOR",
        "latLong": "-3.7758, -38.5322"
    },
    {
        "name": "Freeport Intl. Airport, Bahamas, FPO",
        "latLong": "26.5561, -78.6986"
    },
    {
        "name": "Frankfurt Intl. Airport, Germany, FRA",
        "latLong": "50.0483, 8.57041"
    },
    {
        "name": "Franca Airport, Brazil, FRC",
        "latLong": "-20.5897, -47.3819"
    },
    {
        "name": "Friday Harbor Airport, United States, FRD",
        "latLong": "48.5252, -123.027"
    },
    {
        "name": "Fera Island, Solomon Islands, FRE",
        "latLong": "-8.1, 159.583"
    },
    {
        "name": "Forli Airport, Italy, FRL",
        "latLong": "44.1953, 12.0686"
    },
    {
        "name": "Flora Airport, Norway, FRO",
        "latLong": "61.5863, 5.02484"
    },
    {
        "name": "Santa Elena Airport, Guatemala, FRS",
        "latLong": "16.9139, -89.8664"
    },
    {
        "name": "Vasilyevka Airport, Kyrgyzstan, FRU",
        "latLong": "43.0603, 74.4866"
    },
    {
        "name": "Francistown Airport, Botswana, FRW",
        "latLong": "-21.16, 27.4825"
    },
    {
        "name": "Sud Corse Airport, France, FSC",
        "latLong": "41.5022, 9.0968"
    },
    {
        "name": "Sioux Falls Regional Airport, United States, FSD",
        "latLong": "43.5813, -96.7317"
    },
    {
        "name": "Smith Field Airport, United States, FSM",
        "latLong": "36.1881, -94.4944"
    },
    {
        "name": "St Pierre Airport, Saint Pierre and Miquelon, FSP",
        "latLong": "46.7708, -56.1667"
    },
    {
        "name": "Futuna, Vanuatu, FTA",
        "latLong": "-19.5267, 170.215"
    },
    {
        "name": "El Calafate Intl. Airport, Argentina, FTE",
        "latLong": "-50.3333, -72.25"
    },
    {
        "name": "Tolagnaro Airport, Madagascar, FTU",
        "latLong": "-25.0381, 46.9556"
    },
    {
        "name": "Puerto del Rosario Airport, Spain, FUE",
        "latLong": "28.3997, -13.9998"
    },
    {
        "name": "Unknown, China, FUG",
        "latLong": "37.8882, -82.9323"
    },
    {
        "name": "Fukue Airport, Japan, FUJ",
        "latLong": "32.6726, 128.836"
    },
    {
        "name": "Fukuoka Airport, Japan, FUK",
        "latLong": "33.5971, 130.443"
    },
    {
        "name": "Funafuti Intl. Airport, Tuvalu, FUN",
        "latLong": "-8.52982, 179.189"
    },
    {
        "name": "Futuna Island, Wallis and Futuna Islands, FUT",
        "latLong": "-14.25, -178.15"
    },
    {
        "name": "Fort Wayne Municipal Airport-Baer Field, United States, FWA",
        "latLong": "40.9883, -85.1899"
    },
    {
        "name": "Fort Yukon Airport, United States, FYU",
        "latLong": "66.5714, -145.25"
    },
    {
        "name": "Filton Airport, United Kingdom, FZO",
        "latLong": "51.5194, -2.5761"
    },
    {
        "name": "Gabes Airport, Tunisia, GAE",
        "latLong": "33.8792, 10.1028"
    },
    {
        "name": "Gafsa, Tunisia, GAF",
        "latLong": "34.4222, 8.81944"
    },
    {
        "name": "Yamagata Airport, Japan, GAJ",
        "latLong": "38.4109, 140.37"
    },
    {
        "name": "Galena Airport, United States, GAL",
        "latLong": "64.7404, -156.931"
    },
    {
        "name": "Gambell Airport, United States, GAM",
        "latLong": "63.7667, -171.738"
    },
    {
        "name": "Gan Island Airport, Maldives, GAN",
        "latLong": "-0.6912, 73.16"
    },
    {
        "name": "Cuba, Cuba, GAO",
        "latLong": "20.143, -75.209"
    },
    {
        "name": "Borjhar, India, GAU",
        "latLong": "26.0857, 91.5669"
    },
    {
        "name": "Gamba, Gabon, GAX",
        "latLong": "-2.7639, 9.98581"
    },
    {
        "name": "Gaya Airport, India, GAY",
        "latLong": "24.7443, 84.9493"
    },
    {
        "name": "Great Bend Municipal Airport, United States, GBD",
        "latLong": "38.352, -98.853"
    },